{"type":"FeatureCollection","features":[{"type":"Feature","properties":{"Name":"Adel Beck Secure Unit","Latitude":"53.8528","Longitude":"-1.57214","Address1":"East Moor Lane","Address2":"Adel","Town":"Leeds","Region":"West Yorkshire","PostalCode":"LS16 8EB","CountryCode":"GB"},"geometry":{"type":"Point","coordinates":[-1.57214,53.8528]}},{"type":"Feature","properties":{"Name":"Apex Centre","Latitude":"53.78518769","Longitude":"-1.543707039","Address1":"8 Apex Way","Town":"Leeds","Region":"West Yorkshire","PostalCode":"LS11 5LT","CountryCode":"GB","Stage":"Active","Type":"SingleSpot","NumberOfAccessPoints":"10","Accessibility":"No Restrictions","Protection":"WPA2","GovroamEnabled":"1"},"geometry":{"type":"Point","coordinates":[-1.543707,53.785188]}},{"type":"Feature","properties":{"Name":"Albion House","Latitude":"53.85853","Longitude":"-1.68687","Address1":"Rawdon Park","Address2":"Rawdon, Yeadon","Town":"Leeds","Region":"West Yorkshire","PostalCode":"LS19 7XX","CountryCode":"GB"},"geometry":{"type":"Point","coordinates":[-1.68687,53.85853]}},{"type":"Feature","properties":{"Name":"Arthington Court","Latitude":"53.77267","Longitude":"-1.53123","Address1":"Arthington Court","Address2":"Hunslet","Town":"Leeds","Region":"West Yorkshire","PostalCode":"LS10 2LW","CountryCode":"GB"},"geometry":{"type":"Point","coordinates":[-1.53123,53.77267]}},{"type":"Feature","properties":{"Name":"St George House","Latitude":"53.80084414","Longitude":"-1.550266385","Address1":"40 Great George Street","Town":"Leeds","Region":"West Yorkshire","PostalCode":"LS1 3DL","CountryCode":"GB","Stage":"Active","Type":"SingleSpot","NumberOfAccessPoints":"10","Accessibility":"No Restrictions","Protection":"WPA2","GovroamEnabled":"1"},"geometry":{"type":"Point","coordinates":[-1.550266,53.800844]}},{"type":"Feature","properties":{"Name":"Leeds Civic Hall","Latitude":"53.80226965","Longitude":"-1.548494218","Address1":"Calverley Street","Town":"Leeds","Region":"West Yorkshire","PostalCode":"LS1 1UR","CountryCode":"GB","Stage":"Active","Type":"SingleSpot","NumberOfAccessPoints":"50","Accessibility":"No Restrictions","Protection":"WPA2","GovroamEnabled":"1"},"geometry":{"type":"Point","coordinates":[-1.548494,53.80227]}},{"type":"Feature","properties":{"Name":"Carriageworks Theatre","Latitude":"53.80122324","Longitude":"-1.547895253","Address1":"3 Millenium Square","Town":"Leeds","Region":"West Yorkshire","PostalCode":"LS2 3AD","CountryCode":"GB","Stage":"Active","Type":"Area","Accessibility":"No Restrictions","Protection":"WPA2","GovroamEnabled":"1"},"geometry":{"type":"Point","coordinates":[-1.547895,53.801223]}},{"type":"Feature","properties":{"Name":"Garforth Library and One Stop Centre","Latitude":"53.79191339","Longitude":"-1.388125926","Address1":"Lidgett Lane","Address2":"Garforth","Town":"Leeds","Region":"West Yorkshire","PostalCode":"LS25 1EH","CountryCode":"GB","Stage":"Active","Type":"Area","Accessibility":"No Restrictions","Protection":"WPA2","GovroamEnabled":"1"},"geometry":{"type":"Point","coordinates":[-1.388126,53.791913]}},{"type":"Feature","properties":{"Name":"Abbey House Museum","Latitude":"53.82238406","Longitude":"-1.607118964","Address1":"Abbey Walk","Town":"Leeds","Region":"West Yorkshire","PostalCode":"LS5 3EH","CountryCode":"GB","Stage":"Active","Type":"SingleSpot","Accessibility":"No Restrictions","Protection":"WPA2","GovroamEnabled":"1"},"geometry":{"type":"Point","coordinates":[-1.607119,53.822384]}},{"type":"Feature","properties":{"Name":"Aberfield Gate Housing Office (BITMO)","Latitude":"53.7567338","Longitude":"-1.527326286","Address1":"Aberfield Gate","Town":"Leeds","Region":"West Yorkshire","PostalCode":"LS10 3QH","CountryCode":"GB","Stage":"Active","Type":"SingleSpot","Accessibility":"No Restrictions","Protection":"WPA2","GovroamEnabled":"1"},"geometry":{"type":"Point","coordinates":[-1.527326,53.756734]}},{"type":"Feature","properties":{"Name":"Acorn Lodge Children's Unit","Latitude":"53.80147842","Longitude":"-1.58962661","Address1":"Rombalds Avenue","Address2":"Armley","Town":"Leeds","Region":"West Yorkshire","PostalCode":"LS12 2BA","CountryCode":"GB","Stage":"Active","Type":"SingleSpot","Accessibility":"No Restrictions","Protection":"WPA2","GovroamEnabled":"1"},"geometry":{"type":"Point","coordinates":[-1.589627,53.801478]}},{"type":"Feature","properties":{"Name":"Adams Court","Latitude":"53.79056567","Longitude":"-1.568253994","Address1":"Whitehall Road E","Town":"Leeds","Region":"West Yorkshire","PostalCode":"LS12 1DB","CountryCode":"GB","Stage":"Active","Type":"SingleSpot","Accessibility":"No Restrictions","Protection":"WPA2","GovroamEnabled":"1"},"geometry":{"type":"Point","coordinates":[-1.568254,53.790566]}},{"type":"Feature","properties":{"Name":"Aireborough Leisure Centre","Latitude":"53.87262861","Longitude":"-1.707903028","Address1":"The Green","Address2":"Guiseley","Town":"Leeds","Region":"West Yorkshire","PostalCode":"LS20 9BT","CountryCode":"GB","Stage":"Active","Type":"SingleSpot","Accessibility":"No Restrictions","Protection":"WPA2","GovroamEnabled":"1"},"geometry":{"type":"Point","coordinates":[-1.707903,53.872629]}},{"type":"Feature","properties":{"Name":"Ardsley and Tingley Library","Latitude":"53.72558195","Longitude":"-1.550794692","Address1":"213 Bradford Road","Address2":"East Ardsley","Town":"Leeds","Region":"West Yorkshire","PostalCode":"WF3 2DL","CountryCode":"GB","Stage":"Active","Type":"SingleSpot","Accessibility":"No Restrictions","Protection":"WPA2","GovroamEnabled":"1"},"geometry":{"type":"Point","coordinates":[-1.550795,53.725582]}},{"type":"Feature","properties":{"Name":"The Arium","Latitude":"53.8393213","Longitude":"-1.43424998","Address1":"Thorner Lane","Address2":"Scarcroft","Town":"Leeds","Region":"West Yorkshire","PostalCode":"LS14 3FB","CountryCode":"GB","Stage":"Active","Type":"SingleSpot","Accessibility":"No Restrictions","Protection":"WPA2","GovroamEnabled":"1"},"geometry":{"type":"Point","coordinates":[-1.43425,53.839321]}},{"type":"Feature","properties":{"Name":"Leeds Industrial Museum at Armley Mills","Latitude":"53.80294145","Longitude":"-1.582877042","Address1":"Canal Road","Address2":"Armley","Town":"Leeds","Region":"West Yorkshire","PostalCode":"LS12 2QF","CountryCode":"GB","Stage":"Active","Type":"SingleSpot","Accessibility":"No Restrictions","Protection":"WPA2","GovroamEnabled":"1"},"geometry":{"type":"Point","coordinates":[-1.582877,53.802941]}},{"type":"Feature","properties":{"Name":"Armley Moor Early Years Centre","Latitude":"53.79607605","Longitude":"-1.593990314","Address1":"Station Road","Address2":"Armley","Town":"Leeds","Region":"West Yorkshire","PostalCode":"LS12 3EY","CountryCode":"GB","Stage":"Active","Type":"SingleSpot","Accessibility":"No Restrictions","Protection":"WPA2","GovroamEnabled":"1"},"geometry":{"type":"Point","coordinates":[-1.59399,53.796076]}},{"type":"Feature","properties":{"Name":"Armley Leisure Centre","Latitude":"53.79576747","Longitude":"-1.591446417","Address1":"Carr Crofts","Address2":"Armley","Town":"Leeds","Region":"West Yorkshire","PostalCode":"LS12 3HB","CountryCode":"GB","Stage":"Active","Type":"SingleSpot","Accessibility":"No Restrictions","Protection":"WPA2","GovroamEnabled":"1"},"geometry":{"type":"Point","coordinates":[-1.591446,53.795767]}},{"type":"Feature","properties":{"Name":"Armley One Stop Centre and Library","Latitude":"53.79712966","Longitude":"-1.588046426","Address1":"2 Stockshill","Address2":"Armley","Town":"Leeds","Region":"West Yorkshire","PostalCode":"LS12 1UQ","CountryCode":"GB","Stage":"Active","Type":"SingleSpot","Accessibility":"No Restrictions","Protection":"WPA2","GovroamEnabled":"1"},"geometry":{"type":"Point","coordinates":[-1.588046,53.79713]}},{"type":"Feature","properties":{"Name":"Leeds Art Gallery","Latitude":"53.79996232","Longitude":"-1.548108697","Address1":"The Headrow","Town":"Leeds","Region":"West Yorkshire","PostalCode":"LS1 3AA","CountryCode":"GB","Stage":"Active","Type":"SingleSpot","Accessibility":"No Restrictions","Protection":"WPA2","GovroamEnabled":"1"},"geometry":{"type":"Point","coordinates":[-1.548109,53.799962]}},{"type":"Feature","properties":{"Name":"Artemis","Latitude":"53.78904976","Longitude":"-1.551485658","Address1":"45 Marshall street","Town":"Leeds","Region":"West Yorkshire","PostalCode":"LS11 9RZ","CountryCode":"GB","Stage":"Active","Type":"SingleSpot","Accessibility":"No Restrictions","Protection":"WPA2","GovroamEnabled":"1"},"geometry":{"type":"Point","coordinates":[-1.551486,53.78905]}},{"type":"Feature","properties":{"Name":"Farnley Hall","Latitude":"53.78744697","Longitude":"-1.627525187","Address1":"Hall Lane","Town":"Leeds","Region":"West Yorkshire","PostalCode":"LS12 5HA","CountryCode":"GB","Stage":"Active","Type":"SingleSpot","Accessibility":"No Restrictions","Protection":"WPA2","GovroamEnabled":"1"},"geometry":{"type":"Point","coordinates":[-1.627525,53.787447]}},{"type":"Feature","properties":{"Name":"Barleyfields Community Centre","Latitude":"53.93133555","Longitude":"-1.388850588","Address1":"Crossley street","Address2":"Wetherby","Town":"Leeds","Region":"West Yorkshire","PostalCode":"LS22 6RT","CountryCode":"GB","Stage":"Active","Type":"SingleSpot","Accessibility":"No Restrictions","Protection":"WPA2","GovroamEnabled":"1"},"geometry":{"type":"Point","coordinates":[-1.388851,53.931336]}},{"type":"Feature","properties":{"Name":"Beeston Hill Community Health Centre","Latitude":"53.77829584","Longitude":"-1.555921922","Address1":"123 Cemetery Road","Address2":"Beeston","Town":"Leeds","Region":"West Yorkshire","PostalCode":"LS11 8LH","CountryCode":"GB","Stage":"Active","Type":"SingleSpot","Accessibility":"No Restrictions","Protection":"WPA2","GovroamEnabled":"1"},"geometry":{"type":"Point","coordinates":[-1.555922,53.778296]}},{"type":"Feature","properties":{"Name":"Beeston Library","Latitude":"53.77254437","Longitude":"-1.566524497","Address1":"Town Street","Town":"Leeds","Region":"West Yorkshire","PostalCode":"LS11 8PN","CountryCode":"GB","Stage":"Active","Type":"SingleSpot","Accessibility":"No Restrictions","Protection":"WPA2","GovroamEnabled":"1"},"geometry":{"type":"Point","coordinates":[-1.566524,53.772544]}},{"type":"Feature","properties":{"Name":"Belle Isle Foundation (Breeze)","Latitude":"53.76646766","Longitude":"-1.522968804","Address1":"Enterprise Way","Address2":"Belle Isle Centre","Town":"Leeds","Region":"West Yorkshire","PostalCode":"LS10 3DZ","CountryCode":"GB","Stage":"Active","Type":"SingleSpot","Accessibility":"No Restrictions","Protection":"WPA2","GovroamEnabled":"1"},"geometry":{"type":"Point","coordinates":[-1.522969,53.766468]}},{"type":"Feature","properties":{"Name":"Boston Spa Children's Centre","Latitude":"53.90814829","Longitude":"-1.358257444","Address1":"Deepdale Lane","Address2":"Boston Spa","Address3":"Wetherby","Town":"Leeds","Region":"West Yorkshire","PostalCode":"LS23 6EW","CountryCode":"GB","Stage":"Active","Type":"SingleSpot","Accessibility":"No Restrictions","Protection":"WPA2","GovroamEnabled":"1"},"geometry":{"type":"Point","coordinates":[-1.358257,53.908148]}},{"type":"Feature","properties":{"Name":"Boston Spa Library","Latitude":"53.90540059","Longitude":"-1.346497019","Address1":"High Street","Address2":"Boston Spa","Town":"Leeds","Region":"West Yorkshire","PostalCode":"LS23 6BH","CountryCode":"GB","Stage":"Active","Type":"SingleSpot","Accessibility":"No Restrictions","Protection":"WPA2","GovroamEnabled":"1"},"geometry":{"type":"Point","coordinates":[-1.346497,53.905401]}},{"type":"Feature","properties":{"Name":"Bramley Childrens Centre","Latitude":"53.8086","Longitude":"-1.6379","Address1":"Fairfield Street","Address2":"Bramley","Town":"Leeds","Region":"West Yorkshire","PostalCode":"LS13 3DT","CountryCode":"GB","Stage":"Active","Type":"SingleSpot","Accessibility":"No Restrictions","Protection":"WPA2","GovroamEnabled":"1"},"geometry":{"type":"Point","coordinates":[-1.6379,53.8086]}},{"type":"Feature","properties":{"Name":"Bramley NHO","Latitude":"53.81044","Longitude":"-1.63008","Address1":"Hough Ln","Address2":"Bramley","Town":"Leeds","Region":"West Yorkshire","PostalCode":"LS13 3ND","CountryCode":"GB"},"geometry":{"type":"Point","coordinates":[-1.63008,53.81044]}},{"type":"Feature","properties":{"Name":"Bramley Library","Latitude":"53.81045345","Longitude":"-1.630177784","Address1":"Hough Lane","Address2":"Bramley","Town":"Leeds","Region":"West Yorkshire","PostalCode":"LS13 3ND","CountryCode":"GB","Stage":"Active","Type":"SingleSpot","Accessibility":"No Restrictions","Protection":"WPA2","GovroamEnabled":"1"},"geometry":{"type":"Point","coordinates":[-1.630178,53.810453]}},{"type":"Feature","properties":{"Name":"Bramley Housing Office","Latitude":"53.81253207","Longitude":"-1.628363146","Address1":"202 Town Street","Address2":"Bramley","Town":"Leeds","Region":"West Yorkshire","PostalCode":"LS13 2EP","CountryCode":"GB","Stage":"Active","Type":"SingleSpot","Accessibility":"No Restrictions","Protection":"WPA2","GovroamEnabled":"1"},"geometry":{"type":"Point","coordinates":[-1.628363,53.812532]}},{"type":"Feature","properties":{"Name":"The Brownlee Centre","Latitude":"53.84305138","Longitude":"-1.590701295","Address1":"Bodington Way","Town":"Leeds","Region":"West Yorkshire","PostalCode":"LS16 8NA","CountryCode":"GB","Stage":"Active","Type":"SingleSpot","Accessibility":"No Restrictions","Protection":"WPA2","GovroamEnabled":"1"},"geometry":{"type":"Point","coordinates":[-1.590701,53.843051]}},{"type":"Feature","properties":{"Name":"Burley Park Children's Centre","Latitude":"53.80713873","Longitude":"-1.58010753","Address1":"St. Matthias street","Address2":"Burley","Town":"Leeds","Region":"West Yorkshire","PostalCode":"LS4 2DZ","CountryCode":"GB","Stage":"Active","Type":"SingleSpot","Accessibility":"No Restrictions","Protection":"WPA2","GovroamEnabled":"1"},"geometry":{"type":"Point","coordinates":[-1.580108,53.807139]}},{"type":"Feature","properties":{"Name":"Burmantofts Housing Office","Latitude":"53.80043425","Longitude":"-1.522880642","Address1":"Rigton Lawn","Address2":"Burmantofts","Town":"Leeds","Region":"West Yorkshire","PostalCode":"LS9 7QA","CountryCode":"GB","Stage":"Active","Type":"SingleSpot","Accessibility":"No Restrictions","Protection":"WPA2","GovroamEnabled":"1"},"geometry":{"type":"Point","coordinates":[-1.522881,53.800434]}},{"type":"Feature","properties":{"Name":"Bramley Fulfilling Lives","Latitude":"53.80637534","Longitude":"-1.630091778","Address1":"Bramley","Town":"Leeds","Region":"West Yorkshire","PostalCode":"LS13 3AA","CountryCode":"GB","Stage":"Active","Type":"SingleSpot","Accessibility":"No Restrictions","Protection":"WPA2","GovroamEnabled":"1"},"geometry":{"type":"Point","coordinates":[-1.630092,53.806375]}},{"type":"Feature","properties":{"Name":"Broomhill Community Centre","Latitude":"53.80258074","Longitude":"-1.50112315","Address1":"Harehils","Town":"Leeds","Region":"West Yorkshire","PostalCode":"LS9 6TW","CountryCode":"GB","Stage":"Active","Type":"SingleSpot","Accessibility":"No Restrictions","Protection":"WPA2","GovroamEnabled":"1"},"geometry":{"type":"Point","coordinates":[-1.501123,53.802581]}},{"type":"Feature","properties":{"Name":"Cardinal Court","Latitude":"53.76589","Longitude":"-1.56882","Address1":"Cardinal Walk","Address2":"Beeston","Town":"Leeds","Region":"West Yorkshire","PostalCode":"LS11 8HP","CountryCode":"GB"},"geometry":{"type":"Point","coordinates":[-1.56882,53.76589]}},{"type":"Feature","properties":{"Name":"Calverley Library","Latitude":"53.82928798","Longitude":"-1.686914928","Address1":"Thornhill Street","Address2":"Calverley","Town":"Leeds","Region":"West Yorkshire","PostalCode":"LS28 5PD","CountryCode":"GB","Stage":"Active","Type":"SingleSpot","Accessibility":"No Restrictions","Protection":"WPA2","GovroamEnabled":"1"},"geometry":{"type":"Point","coordinates":[-1.686915,53.829288]}},{"type":"Feature","properties":{"Name":"Carr Manor Children's Centre","Latitude":"53.8350381","Longitude":"-1.552765476","Address1":"Carr Manor Primary School","Address2":"Carr Manor Road","Town":"Leeds","Region":"West Yorkshire","PostalCode":"LS17 5DJ","CountryCode":"GB","Stage":"Active","Type":"SingleSpot","Accessibility":"No Restrictions","Protection":"WPA2","GovroamEnabled":"1"},"geometry":{"type":"Point","coordinates":[-1.552765,53.835038]}},{"type":"Feature","properties":{"Name":"Leeds Central Library","Latitude":"53.80033801","Longitude":"-1.548701341","Address1":"Calverley Street","Town":"Leeds","Region":"West Yorkshire","PostalCode":"LS1 3AB","CountryCode":"GB","Stage":"Active","Type":"SingleSpot","Accessibility":"No Restrictions","Protection":"WPA2","GovroamEnabled":"1"},"geometry":{"type":"Point","coordinates":[-1.548701,53.800338]}},{"type":"Feature","properties":{"Name":"Technorth Family Learning Centre","Latitude":"53.8252492","Longitude":"-1.534391721","Address1":"9 Harrogate Road","Town":"Leeds","Region":"West Yorkshire","PostalCode":"LS7 3NB","CountryCode":"GB","Stage":"Active","Type":"SingleSpot","Accessibility":"No Restrictions","Protection":"WPA2","GovroamEnabled":"1"},"geometry":{"type":"Point","coordinates":[-1.534392,53.825249]}},{"type":"Feature","properties":{"Name":"Chapel Allerton Library","Latitude":"53.82874729","Longitude":"-1.537532594","Address1":"106 Harrogate Road","Address2":"Chapel Allerton","Town":"Leeds","Region":"West Yorkshire","PostalCode":"LS7 4LZ","CountryCode":"GB","Stage":"Active","Type":"SingleSpot","Accessibility":"No Restrictions","Protection":"WPA2","GovroamEnabled":"1"},"geometry":{"type":"Point","coordinates":[-1.537533,53.828747]}},{"type":"Feature","properties":{"Name":"Chapeltown Children's Centre","Latitude":"53.81199386","Longitude":"-1.529704399","Address1":"62 Leopold Street","Address2":"Chapeltown","Town":"Leeds","Region":"West Yorkshire","PostalCode":"LS7 4AW","CountryCode":"GB","Stage":"Active","Type":"SingleSpot","Accessibility":"No Restrictions","Protection":"WPA2","GovroamEnabled":"1"},"geometry":{"type":"Point","coordinates":[-1.529704,53.811994]}},{"type":"Feature","properties":{"Name":"Leeds City Museum","Latitude":"53.80161266","Longitude":"-1.546908629","Address1":"Millenium Square","Town":"Leeds","Region":"West Yorkshire","PostalCode":"LS2 8BH","CountryCode":"GB","Stage":"Active","Type":"SingleSpot","Accessibility":"No Restrictions","Protection":"WPA2","GovroamEnabled":"1"},"geometry":{"type":"Point","coordinates":[-1.546909,53.801613]}},{"type":"Feature","properties":{"Name":"Cottingley Children's Centre","Latitude":"53.76823713","Longitude":"-1.5818308","Address1":"Cottingley Drive","Town":"Leeds","Region":"West Yorkshire","PostalCode":"LS11 0JP","CountryCode":"GB","Stage":"Active","Type":"SingleSpot","Accessibility":"No Restrictions","Protection":"WPA2","GovroamEnabled":"1"},"geometry":{"type":"Point","coordinates":[-1.581831,53.768237]}},{"type":"Feature","properties":{"Name":"Cottingley Court Transitional Housing Unit","Latitude":"53.76757181","Longitude":"-1.581009556","Address1":"Cottingley Court","Address2":"Cottingley Approach","Town":"Leeds","Region":"West Yorkshire","PostalCode":"LS11 0HP","CountryCode":"GB","Stage":"Active","Type":"SingleSpot","Accessibility":"No Restrictions","Protection":"WPA2","GovroamEnabled":"1"},"geometry":{"type":"Point","coordinates":[-1.58101,53.767572]}},{"type":"Feature","properties":{"Name":"Crossgates Library","Latitude":"53.80758972","Longitude":"-1.45316624","Address1":"Farm Road","Address2":"Crossgates","Town":"Leeds","Region":"West Yorkshire","PostalCode":"LS15 7LB","CountryCode":"GB","Stage":"Active","Type":"SingleSpot","Accessibility":"No Restrictions","Protection":"WPA2","GovroamEnabled":"1"},"geometry":{"type":"Point","coordinates":[-1.453166,53.80759]}},{"type":"Feature","properties":{"Name":"Crossgates Community Centre","Latitude":"53.80756916","Longitude":"-1.461965256","Address1":"Maryfield Avenue","Address2":"Crossgates","Town":"Leeds","Region":"West Yorkshire","PostalCode":"LS15 7TU","CountryCode":"GB","Stage":"Active","Type":"SingleSpot","Accessibility":"No Restrictions","Protection":"WPA2","GovroamEnabled":"1"},"geometry":{"type":"Point","coordinates":[-1.461965,53.807569]}},{"type":"Feature","properties":{"Name":"Gipton South Children's Centre","Latitude":"53.80704201","Longitude":"-1.491077552","Address1":"Coldcotes Grove","Address2":"Gipton","Town":"Leeds","Region":"West Yorkshire","PostalCode":"LS9 6QJ","CountryCode":"GB","Stage":"Active","Type":"SingleSpot","Accessibility":"No Restrictions","Protection":"WPA2","GovroamEnabled":"1"},"geometry":{"type":"Point","coordinates":[-1.491078,53.807042]}},{"type":"Feature","properties":{"Name":"Dolphin Manor Care Home","Latitude":"53.74719","Longitude":"-1.48622","Address1":"Stone Brig Ln","Address2":"Rothwell","Town":"Leeds","Region":"West Yorkshire","PostalCode":"LS26 0UD","CountryCode":"GB"},"geometry":{"type":"Point","coordinates":[-1.48622,53.74719]}},{"type":"Feature","properties":{"Name":"Deacon House","Latitude":"53.82303848","Longitude":"-1.45986516","Address1":"1 Seacroft Avenue","Town":"Leeds","Region":"West Yorkshire","PostalCode":"LS14 6JD","CountryCode":"GB","Stage":"Active","Type":"SingleSpot","Accessibility":"No Restrictions","Protection":"WPA2","GovroamEnabled":"1"},"geometry":{"type":"Point","coordinates":[-1.459865,53.823038]}},{"type":"Feature","properties":{"Name":"Dewsbury Road One Stop Centre and Library","Latitude":"53.77903662","Longitude":"-1.54564239","Address1":"Dewbury Road","Town":"Leeds","Region":"West Yorkshire","PostalCode":"LS11 6PF","CountryCode":"GB","Stage":"Active","Type":"SingleSpot","Accessibility":"No Restrictions","Protection":"WPA2","GovroamEnabled":"1"},"geometry":{"type":"Point","coordinates":[-1.545642,53.779037]}},{"type":"Feature","properties":{"Name":"Doreen Hamilton Early Years Centre","Latitude":"53.7975474","Longitude":"-1.495181203","Address1":"129 Rookwood Road","Town":"Leeds","Region":"West Yorkshire","PostalCode":"LS9 0LX","CountryCode":"GB","Stage":"Active","Type":"SingleSpot","Accessibility":"No Restrictions","Protection":"WPA2","GovroamEnabled":"1"},"geometry":{"type":"Point","coordinates":[-1.495181,53.797547]}},{"type":"Feature","properties":{"Name":"Farsley Library","Latitude":"53.81007324","Longitude":"-1.673209544","Address1":"Old Road","Address2":"Farsley","Town":"Leeds","Region":"West Yorkshire","PostalCode":"LS28 5DH","CountryCode":"GB","Stage":"Active","Type":"SingleSpot","Accessibility":"No Restrictions","Protection":"WPA2","GovroamEnabled":"1"},"geometry":{"type":"Point","coordinates":[-1.67321,53.810073]}},{"type":"Feature","properties":{"Name":"Fearnville Leisure Centre","Latitude":"53.81491271","Longitude":"-1.48708427","Address1":"Oakwood Lane","Town":"Leeds","Region":"West Yorkshire","PostalCode":"LS8 3LF","CountryCode":"GB","Stage":"Active","Type":"SingleSpot","Accessibility":"No Restrictions","Protection":"WPA2","GovroamEnabled":"1"},"geometry":{"type":"Point","coordinates":[-1.487084,53.814913]}},{"type":"Feature","properties":{"Name":"Firthfields Early Years Centre","Latitude":"53.79320037","Longitude":"-1.370586872","Address1":"Conisborough Lane","Address2":"Garforth","Town":"Leeds","Region":"West Yorkshire","PostalCode":"LS25 2LR","CountryCode":"GB","Stage":"Active","Type":"SingleSpot","Accessibility":"No Restrictions","Protection":"WPA2","GovroamEnabled":"1"},"geometry":{"type":"Point","coordinates":[-1.370587,53.7932]}},{"type":"Feature","properties":{"Name":"Garforth Leisure Centre","Latitude":"53.79175481","Longitude":"-1.376084665","Address1":"Ninelands Lane","Address2":"Garforth","Town":"Leeds","Region":"West Yorkshire","PostalCode":"LS25 1NX","CountryCode":"GB","Stage":"Active","Type":"SingleSpot","Accessibility":"No Restrictions","Protection":"WPA2","GovroamEnabled":"1"},"geometry":{"type":"Point","coordinates":[-1.376085,53.791755]}},{"type":"Feature","properties":{"Name":"Gildersome Library","Latitude":"53.7582108","Longitude":"-1.629091139","Address1":"Town Street","Address2":"Gildersome","Address3":"Morley","Town":"Leeds","Region":"West Yorkshire","PostalCode":"LS27 7AB","CountryCode":"GB","Stage":"Active","Type":"SingleSpot","Accessibility":"No Restrictions","Protection":"WPA2","GovroamEnabled":"1"},"geometry":{"type":"Point","coordinates":[-1.629091,53.758211]}},{"type":"Feature","properties":{"Name":"Gildersome Child Centre","Latitude":"53.75832","Longitude":"-1.62969","Address1":"c/o Gildersome Primary School, Town Street","Address2":"Gildersome","Town":"Leeds","Region":"West Yorkshire","PostalCode":"LS27 7AB","CountryCode":"GB"},"geometry":{"type":"Point","coordinates":[-1.62969,53.75832]}},{"type":"Feature","properties":{"Name":"Great Eastern House","Latitude":"53.77184","Longitude":"-1.51745","Address1":"Wakefield Road","Town":"Leeds","Region":"West Yorkshire","PostalCode":"LS10 3DQ","CountryCode":"GB"},"geometry":{"type":"Point","coordinates":[-1.51745,53.77184]}},{"type":"Feature","properties":{"Name":"Gipton North Housing Office","Latitude":"53.80941227","Longitude":"-1.495039233","Address1":"Coldcotes Drive","Town":"Leeds","Region":"west Yorkshire","PostalCode":"LS9 6QG","CountryCode":"GB","Stage":"Active","Type":"SingleSpot","Accessibility":"No Restrictions","Protection":"WPA2","GovroamEnabled":"1"},"geometry":{"type":"Point","coordinates":[-1.495039,53.809412]}},{"type":"Feature","properties":{"Name":"Gipton North Children's Centre","Latitude":"53.81430594","Longitude":"-1.497979883","Address1":"Thorn Walk","Address2":"Gipton","Town":"Leeds","Region":"West Yorkshire","PostalCode":"LS8 3LP","CountryCode":"GB","Stage":"Active","Type":"SingleSpot","Accessibility":"No Restrictions","Protection":"WPA2","GovroamEnabled":"1"},"geometry":{"type":"Point","coordinates":[-1.49798,53.814306]}},{"type":"Feature","properties":{"Name":"Guiseley Library","Latitude":"53.87313789","Longitude":"-1.710293996","Address1":"Otley Road","Address2":"Guiseley","Town":"Leeds","Region":"West Yorkshire","PostalCode":"LS20 8AH","CountryCode":"GB","Stage":"Active","Type":"SingleSpot","Accessibility":"No Restrictions","Protection":"WPA2","GovroamEnabled":"1"},"geometry":{"type":"Point","coordinates":[-1.710294,53.873138]}},{"type":"Feature","properties":{"Name":"Halliday Court","Latitude":"53.79466","Longitude":"-1.38971","Address1":"Halliday Court","Address2":"Garforth","Town":"Leeds","Region":"West Yorkshire","PostalCode":"LS25 1ET","CountryCode":"GB"},"geometry":{"type":"Point","coordinates":[-1.38971,53.79466]}},{"type":"Feature","properties":{"Name":"Hillside Unit 15","Latitude":"53.82219","Longitude":"-1.56999","Address1":"15 Wood Lane","Address2":"Headingly","Town":"Leeds","Region":"West Yorkshire","PostalCode":"LS6 2AY","CountryCode":"GB"},"geometry":{"type":"Point","coordinates":[-1.56999,53.82219]}},{"type":"Feature","properties":{"Name":"Home Lea HOP","Latitude":"53.75579","Longitude":"-1.48956","Address1":"Wood Lane","Address2":"Rothwell","Town":"Leeds","Region":"West Yorkshire","PostalCode":"LS26 0PH","CountryCode":"GB"},"geometry":{"type":"Point","coordinates":[-1.48956,53.75579]}},{"type":"Feature","properties":{"Name":"Hunslet Over 3's","Latitude":"53.77758","Longitude":"-1.52861","Address1":"Co Hunslet St Marys Primary School,Church Street","Address2":"Hunslet","Town":"Leeds","Region":"West Yorkshire","PostalCode":"LS10 2QY","CountryCode":"GB"},"geometry":{"type":"Point","coordinates":[-1.52861,53.77758]}},{"type":"Feature","properties":{"Name":"Halton Library","Latitude":"53.79665052","Longitude":"-1.468851432","Address1":"273 Selby Road","Town":"Leeds","Region":"West Yorkshire","PostalCode":"LS15 7JR","CountryCode":"GB","Stage":"Active","Type":"SingleSpot","Accessibility":"No Restrictions","Protection":"WPA2","GovroamEnabled":"1"},"geometry":{"type":"Point","coordinates":[-1.468851,53.796651]}},{"type":"Feature","properties":{"Name":"Harehills Children's Centre","Latitude":"53.80909233","Longitude":"-1.510300877","Address1":"Cowper Terrace","Town":"Leeds","Region":"West Yorkshire","PostalCode":"LS9 7BA","CountryCode":"GB","Stage":"Active","Type":"SingleSpot","Accessibility":"No Restrictions","Protection":"WPA2","GovroamEnabled":"1"},"geometry":{"type":"Point","coordinates":[-1.510301,53.809092]}},{"type":"Feature","properties":{"Name":"Hawksworth Wood Children's Centre","Latitude":"53.83154336","Longitude":"-1.616735023","Address1":"Broadway","Town":"Leeds","Region":"West Yorkshire","PostalCode":"LS5 3PS","CountryCode":"GB","Stage":"Active","Type":"SingleSpot","Accessibility":"No Restrictions","Protection":"WPA2","GovroamEnabled":"1"},"geometry":{"type":"Point","coordinates":[-1.616735,53.831543]}},{"type":"Feature","properties":{"Name":"Headingley Library","Latitude":"53.82099619","Longitude":"-1.578372771","Address1":"North Lane","Address2":"Headingley","Town":"Leeds","Region":"West Yorkshire","PostalCode":"LS6 3HG","CountryCode":"GB","Stage":"Active","Type":"SingleSpot","Accessibility":"No Restrictions","Protection":"WPA2","GovroamEnabled":"1"},"geometry":{"type":"Point","coordinates":[-1.578373,53.820996]}},{"type":"Feature","properties":{"Name":"Herd Farm Activity Centre","Latitude":"53.87417314","Longitude":"-1.529404612","Address1":"Eccup Reservoir","Address2":"Harrogate Road","Town":"Leeds","Region":"West Yorkshire","PostalCode":"LS17 7RJ","CountryCode":"GB","Stage":"Active","Type":"SingleSpot","Accessibility":"No Restrictions","Protection":"WPA2","GovroamEnabled":"1"},"geometry":{"type":"Point","coordinates":[-1.529405,53.874173]}},{"type":"Feature","properties":{"Name":"Holt Park Active","Latitude":"53.85548953","Longitude":"-1.608168595","Address1":"Holtdale approach","Address2":"Holt Park","Town":"Leeds","Region":"West Yorkshire","PostalCode":"LS16 7RX","CountryCode":"GB","Stage":"Active","Type":"SingleSpot","Accessibility":"No Restrictions","Protection":"WPA2","GovroamEnabled":"1"},"geometry":{"type":"Point","coordinates":[-1.608169,53.85549]}},{"type":"Feature","properties":{"Name":"Holt Park Library","Latitude":"53.85510535","Longitude":"-1.609787792","Address1":"Ralph Thoresby High School","Address2":"Holtdale Approach","Address3":"Holt Park","Town":"Leeds","Region":"West Yorkshire","PostalCode":"LS16 7RX","CountryCode":"GB","Stage":"Active","Type":"SingleSpot","Accessibility":"No Restrictions","Protection":"WPA2","GovroamEnabled":"1"},"geometry":{"type":"Point","coordinates":[-1.609788,53.855105]}},{"type":"Feature","properties":{"Name":"Horsforth Clinic","Latitude":"53.84020316","Longitude":"-1.638387817","Address1":"Church Lane","Address2":"Horsforth","Town":"Leeds","Region":"West Yorkshire","PostalCode":"LS18 5LA","CountryCode":"GB","Stage":"Active","Type":"SingleSpot","Accessibility":"No Restrictions","Protection":"WPA2","GovroamEnabled":"1"},"geometry":{"type":"Point","coordinates":[-1.638388,53.840203]}},{"type":"Feature","properties":{"Name":"Horsforth Library","Latitude":"53.83995469","Longitude":"-1.637760989","Address1":"Town Street","Address2":"Horsforth","Town":"Leeds","Region":"West Yorkshire","PostalCode":"LS18 5BL","CountryCode":"GB","Stage":"Active","Type":"SingleSpot","Accessibility":"No Restrictions","Protection":"WPA2","GovroamEnabled":"1"},"geometry":{"type":"Point","coordinates":[-1.637761,53.839955]}},{"type":"Feature","properties":{"Name":"Hough Top Court","Latitude":"53.79868951","Longitude":"-1.643061979","Address1":"Hough Top Court","Town":"Leeds","Region":"West Yorkshire","PostalCode":"LS13 4QP","CountryCode":"GB","Stage":"Active","Type":"SingleSpot","Accessibility":"No Restrictions","Protection":"WPA2","GovroamEnabled":"1"},"geometry":{"type":"Point","coordinates":[-1.643062,53.79869]}},{"type":"Feature","properties":{"Name":"Hough Lane Centre","Latitude":"53.81028411","Longitude":"-1.631345773","Address1":"Hough Lane","Town":"Leeds","Region":"West Yorkshire","PostalCode":"LS13 3RD","CountryCode":"GB","Stage":"Active","Type":"SingleSpot","Accessibility":"No Restrictions","Protection":"WPA2","GovroamEnabled":"1"},"geometry":{"type":"Point","coordinates":[-1.631346,53.810284]}},{"type":"Feature","properties":{"Name":"Hunslet Children's Centre","Latitude":"53.77751243","Longitude":"-1.529487172","Address1":"St Marys School","Address2":"Hunslet","Town":"Leeds","Region":"West Yorkshire","PostalCode":"LS10 2QY","CountryCode":"GB","Stage":"Active","Type":"SingleSpot","Accessibility":"No Restrictions","Protection":"WPA2","GovroamEnabled":"1"},"geometry":{"type":"Point","coordinates":[-1.529487,53.777512]}},{"type":"Feature","properties":{"Name":"Hunslet Library","Latitude":"53.78000771","Longitude":"-1.527595977","Address1":"Waterloo street","Address2":"Hunslet","Town":"Leeds","Region":"West Yorkshire","PostalCode":"LS10 2NS","CountryCode":"GB","Stage":"Active","Type":"SingleSpot","Accessibility":"No Restrictions","Protection":"WPA2","GovroamEnabled":"1"},"geometry":{"type":"Point","coordinates":[-1.527596,53.780008]}},{"type":"Feature","properties":{"Name":"Middleton Park Visitor Centre","Latitude":"53.75429084","Longitude":"-1.545143102","Address1":"Town Street","Town":"Leeds","Region":"West Yorkshire","PostalCode":"LS10 3SH","CountryCode":"GB","Stage":"Active","Type":"SingleSpot","Accessibility":"No Restrictions","Protection":"WPA2","GovroamEnabled":"1"},"geometry":{"type":"Point","coordinates":[-1.545143,53.754291]}},{"type":"Feature","properties":{"Name":"John Smeaton Leisure Centre","Latitude":"53.81324739","Longitude":"-1.432558915","Address1":"Smeaton Approach","Town":"Leeds","Region":"West Yorkshire","PostalCode":"LS15 8TA","CountryCode":"GB","Stage":"Active","Type":"SingleSpot","Accessibility":"No Restrictions","Protection":"WPA2","GovroamEnabled":"1"},"geometry":{"type":"Point","coordinates":[-1.432559,53.813247]}},{"type":"Feature","properties":{"Name":"Kentmere Children's Centre","Latitude":"53.82773339","Longitude":"-1.470044551","Address1":"180 Kentmere Avenue","Town":"Leeds","Region":"West Yorkshire","PostalCode":"LS14 1BN","CountryCode":"GB","Stage":"Active","Type":"SingleSpot","Accessibility":"No Restrictions","Protection":"WPA2","GovroamEnabled":"1"},"geometry":{"type":"Point","coordinates":[-1.470045,53.827733]}},{"type":"Feature","properties":{"Name":"Kernel House","Latitude":"53.80555285","Longitude":"-1.48144508","Address1":"Killingbeck Drive","Town":"Leeds","Region":"West Yorkshire","PostalCode":"LS14 6UF","CountryCode":"GB","Stage":"Active","Type":"SingleSpot","Accessibility":"No Restrictions","Protection":"WPA2","GovroamEnabled":"1"},"geometry":{"type":"Point","coordinates":[-1.481445,53.805553]}},{"type":"Feature","properties":{"Name":"Kippax Health Centre","Latitude":"53.77305912","Longitude":"-1.369720695","Address1":"Moorgate Drive","Address2":"Kippax","Town":"Leeds","Region":"West Yorkshire","PostalCode":"LS25 7QT","CountryCode":"GB","Stage":"Active","Type":"SingleSpot","Accessibility":"No Restrictions","Protection":"WPA2","GovroamEnabled":"1"},"geometry":{"type":"Point","coordinates":[-1.369721,53.773059]}},{"type":"Feature","properties":{"Name":"Kippax Leisure Centre","Latitude":"53.76385942","Longitude":"-1.379608002","Address1":"Station Road","Address2":"Kippax","Town":"Leeds","Region":"West Yorkshire","PostalCode":"LS25 7LQ","CountryCode":"GB","Stage":"Active","Type":"SingleSpot","Accessibility":"No Restrictions","Protection":"WPA2","GovroamEnabled":"1"},"geometry":{"type":"Point","coordinates":[-1.379608,53.763859]}},{"type":"Feature","properties":{"Name":"Kippax Library","Latitude":"53.76751519","Longitude":"-1.371183825","Address1":"Westfield Lane","Address2":"Kippax","Town":"Leeds","Region":"West Yorkshire","PostalCode":"LS25 7LY","CountryCode":"GB","Stage":"Active","Type":"SingleSpot","Accessibility":"No Restrictions","Protection":"WPA2","GovroamEnabled":"1"},"geometry":{"type":"Point","coordinates":[-1.371184,53.767515]}},{"type":"Feature","properties":{"Name":"Kirkstall Leisure Centre","Latitude":"53.81650528","Longitude":"-1.601564169","Address1":"Kirkstall Lane","Address2":"Kirkstall","Town":"Leeds","Region":"West Yorkshire","PostalCode":"LS5 3BE","CountryCode":"GB","Stage":"Active","Type":"SingleSpot","Accessibility":"No Restrictions","Protection":"WPA2","GovroamEnabled":"1"},"geometry":{"type":"Point","coordinates":[-1.601564,53.816505]}},{"type":"Feature","properties":{"Name":"Knowle Manor","Latitude":"53.74588","Longitude":"-1.5945","Address1":"Tennyson Terrace,","Address2":"Morley","Town":"Leeds","Region":"West Yorkshire","PostalCode":"LS27 8QP","CountryCode":"GB"},"geometry":{"type":"Point","coordinates":[-1.5945,53.74588]}},{"type":"Feature","properties":{"Name":"Kirkstall Recycling Centre","Latitude":"53.80589969","Longitude":"-1.584711313","Address1":"Evanston Avenue","Address2":"Kirkstall","Town":"Leeds","Region":"West Yorkshire","PostalCode":"LS4 2HR","CountryCode":"GB","Stage":"Active","Type":"SingleSpot","Accessibility":"No Restrictions","Protection":"WPA2","GovroamEnabled":"1"},"geometry":{"type":"Point","coordinates":[-1.584711,53.8059]}},{"type":"Feature","properties":{"Name":"Landmark Court","Latitude":"53.77883558","Longitude":"-1.564916481","Address1":"Landmark Court","Town":"Leeds","Region":"West Yorkshire","PostalCode":"LS11 8JT","CountryCode":"GB","Stage":"Active","Type":"SingleSpot","Accessibility":"No Restrictions","Protection":"WPA2","GovroamEnabled":"1"},"geometry":{"type":"Point","coordinates":[-1.564916,53.778836]}},{"type":"Feature","properties":{"Name":"Lavender Walk","Latitude":"53.79548437","Longitude":"-1.52127633","Address1":"Lavender Walk","Town":"Leeds","Region":"West Yorkshire","PostalCode":"LS9 8JB","CountryCode":"GB","Stage":"Active","Type":"SingleSpot","Accessibility":"No Restrictions","Protection":"WPA2","GovroamEnabled":"1"},"geometry":{"type":"Point","coordinates":[-1.521276,53.795484]}},{"type":"Feature","properties":{"Name":"Lincoln Fields Day Centre","Latitude":"53.80172376","Longitude":"-1.527609091","Address1":"Cromwell Street","Town":"Leeds","Region":"West Yorkshire","PostalCode":"LS9 7SG","CountryCode":"GB","Stage":"Active","Type":"SingleSpot","Accessibility":"No Restrictions","Protection":"WPA2","GovroamEnabled":"1"},"geometry":{"type":"Point","coordinates":[-1.527609,53.801724]}},{"type":"Feature","properties":{"Name":"Luttrell Cresent Childrens Home","Latitude":"53.84441","Longitude":"-1.60232","Address1":"23, Luttrell Crescent","Address2":"Ireland Wood","Town":"Leeds","Region":"West Yorkshire","PostalCode":"LS16 6LU","CountryCode":"GB"},"geometry":{"type":"Point","coordinates":[-1.60232,53.84441]}},{"type":"Feature","properties":{"Name":"Lineham Farm Children's Centre","Latitude":"53.88211348","Longitude":"-1.57399869","Address1":"Swan Lane","Town":"Leeds","Region":"West Yorkshire","PostalCode":"LS16 8AZ","CountryCode":"GB","Stage":"Active","Type":"SingleSpot","Accessibility":"No Restrictions","Protection":"WPA2","GovroamEnabled":"1"},"geometry":{"type":"Point","coordinates":[-1.573999,53.882113]}},{"type":"Feature","properties":{"Name":"Little London Housing Office","Latitude":"53.80853674","Longitude":"-1.540692925","Address1":"Oatland Lane","Town":"Leeds","Region":"West Yorkshire","PostalCode":"LS7 1SP","CountryCode":"GB","Stage":"Active","Type":"SingleSpot","Accessibility":"No Restrictions","Protection":"WPA2","GovroamEnabled":"1"},"geometry":{"type":"Point","coordinates":[-1.540693,53.808537]}},{"type":"Feature","properties":{"Name":"Lotherton Hall","Latitude":"53.81897753","Longitude":"-1.319399953","Address1":"Lotherton Lane","Address2":"Aberford","Town":"Leeds","Region":"West Yorkshire","PostalCode":"LS25 3EB","CountryCode":"GB","Stage":"Active","Type":"SingleSpot","Accessibility":"No Restrictions","Protection":"WPA2","GovroamEnabled":"1"},"geometry":{"type":"Point","coordinates":[-1.3194,53.818978]}},{"type":"Feature","properties":{"Name":"Leeds Magistrates","Latitude":"53.79986101","Longitude":"-1.552267194","Address1":"Westgate","Town":"Leeds","Region":"West Yorkshire","PostalCode":"LS1 2NY","CountryCode":"GB","Stage":"Active","Type":"SingleSpot","Accessibility":"No Restrictions","Protection":"WPA2","GovroamEnabled":"1"},"geometry":{"type":"Point","coordinates":[-1.552267,53.799861]}},{"type":"Feature","properties":{"Name":"Leeds Kirkgate Market","Latitude":"53.79737214","Longitude":"-1.538758291","Address1":"34 George Street","Town":"Leeds","Region":"West Yorkshire","PostalCode":"LS2 7HY","CountryCode":"GB","Stage":"Active","Type":"SingleSpot","Accessibility":"No Restrictions","Protection":"WPA2","GovroamEnabled":"1"},"geometry":{"type":"Point","coordinates":[-1.538758,53.797372]}},{"type":"Feature","properties":{"Name":"Mansion House","Latitude":"53.8397","Longitude":"-1.49994","Address1":"Mansion Lane","Address2":"Roundhay","Town":"Leeds","Region":"West Yorkshire","PostalCode":"LS8 2HH","CountryCode":"GB"},"geometry":{"type":"Point","coordinates":[-1.49994,53.8397]}},{"type":"Feature","properties":{"Name":"Marsden Court","Latitude":"53.81297","Longitude":"-1.67207","Address1":"Water Ln, Farsley","Address2":"Pudsey","Town":"Leeds","Region":"West Yorkshire","PostalCode":"LS28 5SH","CountryCode":"GB"},"geometry":{"type":"Point","coordinates":[-1.67207,53.81297]}},{"type":"Feature","properties":{"Name":"Mears","Latitude":"53.79108269","Longitude":"-1.595219358","Address1":"Unit 1 Barras Industrial Site","Address2":"12 Barras Garth Road","Town":"Leeds","Region":"West Yorkshire","PostalCode":"LS12 4JY","CountryCode":"GB","Stage":"Active","Type":"SingleSpot","Accessibility":"No Restrictions","Protection":"WPA2","GovroamEnabled":"1"},"geometry":{"type":"Point","coordinates":[-1.595219,53.791083]}},{"type":"Feature","properties":{"Name":"Middleton Highways","Latitude":"53.74835297","Longitude":"-1.536705828","Address1":"Selectapost 6","Address2":"Ringroad","Town":"Leeds","Region":"West Yorkshire","PostalCode":"LS10 4AX","CountryCode":"GB","Stage":"Active","Type":"SingleSpot","Accessibility":"No Restrictions","Protection":"WPA2","GovroamEnabled":"1"},"geometry":{"type":"Point","coordinates":[-1.536706,53.748353]}},{"type":"Feature","properties":{"Name":"St Georges One stop Centre","Latitude":"53.7478","Longitude":"-1.5326","Address1":"St Georges Road","Address2":"Middleton","Town":"Leeds","Region":"West Yorkshire","PostalCode":"LS10 4UZ","CountryCode":"GB","Stage":"Active","Type":"SingleSpot","Accessibility":"No Restrictions","Protection":"WPA2","GovroamEnabled":"1"},"geometry":{"type":"Point","coordinates":[-1.5326,53.7478]}},{"type":"Feature","properties":{"Name":"Middleton Play and Learning Centre","Latitude":"53.74200784","Longitude":"-1.548848835","Address1":"Throstle Lane","Town":"Leeds","Region":"West Yorkshire","PostalCode":"LS10 4JD","CountryCode":"GB","Stage":"Active","Type":"SingleSpot","Accessibility":"No Restrictions","Protection":"WPA2","GovroamEnabled":"1"},"geometry":{"type":"Point","coordinates":[-1.548849,53.742008]}},{"type":"Feature","properties":{"Name":"Middleton Leisure Centre","Latitude":"53.74706585","Longitude":"-1.537544019","Address1":"Ring Road","Address2":"Middleton","Town":"Leeds","Region":"West Yorkshire","PostalCode":"LS10 4AX","CountryCode":"GB","Stage":"Active","Type":"SingleSpot","Accessibility":"No Restrictions","Protection":"WPA2","GovroamEnabled":"1"},"geometry":{"type":"Point","coordinates":[-1.537544,53.747066]}},{"type":"Feature","properties":{"Name":"Moor Allerton Library","Latitude":"53.84557354","Longitude":"-1.549224027","Address1":"Moor Allerton Centre","Address2":"King Lane","Town":"Leeds","Region":"West Yorkshire","PostalCode":"LS17 5NY","CountryCode":"GB","Stage":"Active","Type":"SingleSpot","Accessibility":"No Restrictions","Protection":"WPA2","GovroamEnabled":"1"},"geometry":{"type":"Point","coordinates":[-1.549224,53.845574]}},{"type":"Feature","properties":{"Name":"Morley Health Centre","Latitude":"53.74465771","Longitude":"-1.606116325","Address1":"2 Corporation street","Address2":"Morley","Town":"Leeds","Region":"West Yorkshire","PostalCode":"LS27 9NB","CountryCode":"GB","Stage":"Active","Type":"SingleSpot","Accessibility":"No Restrictions","Protection":"WPA2","GovroamEnabled":"1"},"geometry":{"type":"Point","coordinates":[-1.606116,53.744658]}},{"type":"Feature","properties":{"Name":"Morley Leisure Centre","Latitude":"53.74596175","Longitude":"-1.605990907","Address1":"26 Corporation Street","Address2":"Morley","Town":"Leeds","Region":"West Yorkshire","PostalCode":"LS27 9LG","CountryCode":"GB","Stage":"Active","Type":"SingleSpot","Accessibility":"No Restrictions","Protection":"WPA2","GovroamEnabled":"1"},"geometry":{"type":"Point","coordinates":[-1.605991,53.745962]}},{"type":"Feature","properties":{"Name":"Morley Leisure Centre-Gym Only","Latitude":"53.74594668","Longitude":"-1.605898369","Address1":"26 Corporation Street","Address2":"Morley","Town":"Leeds","Region":"West Yorkshire","PostalCode":"LS27 9LG","CountryCode":"GB","Stage":"Active","Type":"SingleSpot","Accessibility":"No Restrictions","Protection":"WPA2","GovroamEnabled":"1"},"geometry":{"type":"Point","coordinates":[-1.605898,53.745947]}},{"type":"Feature","properties":{"Name":"Morley Library","Latitude":"53.7465575","Longitude":"-1.601139826","Address1":"Commercial street","Address2":"Morley","Town":"Leeds","Region":"West Yorkshire","PostalCode":"LS27 8HZ","CountryCode":"GB","Stage":"Active","Type":"SingleSpot","Accessibility":"No Restrictions","Protection":"WPA2","GovroamEnabled":"1"},"geometry":{"type":"Point","coordinates":[-1.60114,53.746558]}},{"type":"Feature","properties":{"Name":"Morley Town Hall","Latitude":"53.74524523","Longitude":"-1.601563094","Address1":"68 Queen street","Address2":"Morley","Town":"Leeds","Region":"West Yorkshire","PostalCode":"LS27 9DY","CountryCode":"GB","Stage":"Active","Type":"SingleSpot","Accessibility":"No Restrictions","Protection":"WPA2","GovroamEnabled":"1"},"geometry":{"type":"Point","coordinates":[-1.601563,53.745245]}},{"type":"Feature","properties":{"Name":"Navigation House","Latitude":"53.77644458","Longitude":"-1.515478718","Address1":"8 George Mann Road","Town":"Leeds","Region":"West Yorkshire","PostalCode":"Ls10 1DJ","CountryCode":"GB","Stage":"Active","Type":"SingleSpot","Accessibility":"No Restrictions","Protection":"WPA2","GovroamEnabled":"1"},"geometry":{"type":"Point","coordinates":[-1.515479,53.776445]}},{"type":"Feature","properties":{"Name":"Naburn Court SH","Latitude":"53.83344","Longitude":"-1.45526","Address1":"Naburn Court","Address2":"Whinmoor","Town":"Leeds","Region":"West Yorkshire","PostalCode":"LS14 2DF","CountryCode":"GB"},"geometry":{"type":"Point","coordinates":[-1.45526,53.83344]}},{"type":"Feature","properties":{"Name":"Northfields SH","Latitude":"53.74548","Longitude":"-1.50152","Address1":"Northfields","Address2":"Rothwell","Town":"Leeds","Region":"West Yorkshire","PostalCode":"LS26 0SL","CountryCode":"GB"},"geometry":{"type":"Point","coordinates":[-1.50152,53.74548]}},{"type":"Feature","properties":{"Name":"Oakwood Library","Latitude":"53.82715501","Longitude":"-1.503606004","Address1":"1 Oakwood Lane","Town":"Leeds","Region":"West Yorkshire","PostalCode":"LS8 2PZ","CountryCode":"GB","Stage":"Active","Type":"SingleSpot","Accessibility":"No Restrictions","Protection":"WPA2","GovroamEnabled":"1"},"geometry":{"type":"Point","coordinates":[-1.503606,53.827155]}},{"type":"Feature","properties":{"Name":"Osmondthorpe One Stop Centre and Job Shop","Latitude":"53.7965564","Longitude":"-1.491105947","Address1":"81A Wykebeck Mount","Town":"Leeds","Region":"West Yorkshire","PostalCode":"LS9 0JE","CountryCode":"GB","Stage":"Active","Type":"SingleSpot","Accessibility":"No Restrictions","Protection":"WPA2","GovroamEnabled":"1"},"geometry":{"type":"Point","coordinates":[-1.491106,53.796556]}},{"type":"Feature","properties":{"Name":"Cross Green Community Centre","Latitude":"53.90610931","Longitude":"-1.689498133","Address1":"Cross Green","Address2":"Otley","Town":"Leeds","Region":"West Yorkshire","PostalCode":"LS21 1HD","CountryCode":"GB","Stage":"Active","Type":"SingleSpot","Accessibility":"No Restrictions","Protection":"WPA2","GovroamEnabled":"1"},"geometry":{"type":"Point","coordinates":[-1.689498,53.906109]}},{"type":"Feature","properties":{"Name":"Otley Childrens Centre","Latitude":"53.90579","Longitude":"-1.68891","Address1":"Cross Green Youth & Community Centre, Cross Green","Address2":" Otley","Town":"Leeds","Region":"West Yorkshire","PostalCode":"LS21 1HD","CountryCode":"GB"},"geometry":{"type":"Point","coordinates":[-1.68891,53.90579]}},{"type":"Feature","properties":{"Name":"Otley Library and Tourist Information Centre","Latitude":"53.9049241","Longitude":"-1.691531604","Address1":"Nelson Street","Address2":"Otley","Town":"Leeds","Region":"West Yorkshire","PostalCode":"LS21 1EZ","CountryCode":"GB","Stage":"Active","Type":"SingleSpot","Accessibility":"No Restrictions","Protection":"WPA2","GovroamEnabled":"1"},"geometry":{"type":"Point","coordinates":[-1.691532,53.904924]}},{"type":"Feature","properties":{"Name":"Prince Phillip Community Centre","Latitude":"53.81887323","Longitude":"-1.542593294","Address1":"Scott Hall Avenue","Town":"Leeds","Region":"West Yorkshire","PostalCode":"LS7 2HJ","CountryCode":"GB","Stage":"Active","Type":"SingleSpot","Accessibility":"No Restrictions","Protection":"WPA2","GovroamEnabled":"1"},"geometry":{"type":"Point","coordinates":[-1.542593,53.818873]}},{"type":"Feature","properties":{"Name":"Seacroft Recycling Centre","Latitude":"53.82761848","Longitude":"-1.463587287","Address1":"Limewood Road","Address2":"Seacroft","Town":"Leeds","Region":"West Yorkshire","PostalCode":"LS14 1LU","CountryCode":"GB","Stage":"Active","Type":"SingleSpot","Accessibility":"No Restrictions","Protection":"WPA2","GovroamEnabled":"1"},"geometry":{"type":"Point","coordinates":[-1.463587,53.827618]}},{"type":"Feature","properties":{"Name":"Phil May Court","Latitude":"53.79201","Longitude":"-1.57414","Address1":"Phil May Court","Address2":"Armley","Town":"Leeds","Region":"West Yorkshire","PostalCode":"LS12 1YW","CountryCode":"GB"},"geometry":{"type":"Point","coordinates":[-1.57414,53.79201]}},{"type":"Feature","properties":{"Name":"Pudsey Health Centre","Latitude":"53.79486554","Longitude":"-1.664026064","Address1":"18 Mulberry Street","Address2":"Pudsey","Town":"Leeds","Region":"West Yorkshire","PostalCode":"LS28 7XP","CountryCode":"GB","Stage":"Active","Type":"SingleSpot","Accessibility":"No Restrictions","Protection":"WPA2","GovroamEnabled":"1"},"geometry":{"type":"Point","coordinates":[-1.664026,53.794866]}},{"type":"Feature","properties":{"Name":"Pudsey Civic Hall","Latitude":"53.80748276","Longitude":"-1.681327982","Address1":"Dawsons Corner","Address2":"Pudsey","Town":"Leeds","Region":"West Yorkshire","PostalCode":"LS28 5TA","CountryCode":"GB","Stage":"Active","Type":"SingleSpot","Accessibility":"No Restrictions","Protection":"WPA2","GovroamEnabled":"1"},"geometry":{"type":"Point","coordinates":[-1.681328,53.807483]}},{"type":"Feature","properties":{"Name":"Pudsey Leisure Centre","Latitude":"53.79543145","Longitude":"-1.662248048","Address1":"Market Place","Address2":"Pudsey","Town":"Leeds","Region":"West Yorkshire","PostalCode":"LS28 7BE","CountryCode":"GB","Stage":"Active","Type":"SingleSpot","Accessibility":"No Restrictions","Protection":"WPA2","GovroamEnabled":"1"},"geometry":{"type":"Point","coordinates":[-1.662248,53.795431]}},{"type":"Feature","properties":{"Name":"Pudsey Library","Latitude":"53.79579503","Longitude":"-1.663950358","Address1":"Church Lane","Address2":"Pudsey","Town":"Leeds","Region":"West Yorkshire","PostalCode":"LS28 7TY","CountryCode":"GB","Stage":"Active","Type":"SingleSpot","Accessibility":"No Restrictions","Protection":"WPA2","GovroamEnabled":"1"},"geometry":{"type":"Point","coordinates":[-1.66395,53.795795]}},{"type":"Feature","properties":{"Name":"Pudsey Community Hub","Latitude":"53.79658668","Longitude":"-1.662488892","Address1":"Robin Lane","Address2":"Pudsey","Town":"Leeds","Region":"West Yorkshire","PostalCode":"LS28 7TY","CountryCode":"GB","Stage":"Active","Type":"SingleSpot","Accessibility":"No Restrictions","Protection":"WPA2","GovroamEnabled":"1"},"geometry":{"type":"Point","coordinates":[-1.662489,53.796587]}},{"type":"Feature","properties":{"Name":"Quarry Mount Children's Centre","Latitude":"53.81587799","Longitude":"-1.554256148","Address1":"Pennington Street","Town":"Leeds","Region":"West Yorkshire","PostalCode":"LS6 2JP","CountryCode":"GB","Stage":"Active","Type":"SingleSpot","Accessibility":"No Restrictions","Protection":"WPA2","GovroamEnabled":"1"},"geometry":{"type":"Point","coordinates":[-1.554256,53.815878]}},{"type":"Feature","properties":{"Name":"Queenswood Education Centre","Latitude":"53.82273022","Longitude":"-1.592957204","Address1":"Foxcroft Close","Town":"Leeds","Region":"West Yorkshire","PostalCode":"LS6 3NT","CountryCode":"GB","Stage":"Active","Type":"SingleSpot","Accessibility":"No Restrictions","Protection":"WPA2","GovroamEnabled":"1"},"geometry":{"type":"Point","coordinates":[-1.592957,53.82273]}},{"type":"Feature","properties":{"Name":"Queensview","Latitude":"53.82138","Longitude":"-1.46199","Address1":"Seacroft Crescent","Address2":"Seacroft","Town":"Leeds","Region":"West Yorkshire","PostalCode":"LS14 6PH","CountryCode":"GB"},"geometry":{"type":"Point","coordinates":[-1.46199,53.82138]}},{"type":"Feature","properties":{"Name":"Raynel Drive Care Home","Latitude":"53.85007","Longitude":"-1.60386","Address1":"9 Raynel Drive care home","Address2":"Ireland Wood","Town":"Leeds","Region":"West Yorkshire","PostalCode":"LS16 6BS","CountryCode":"GB"},"geometry":{"type":"Point","coordinates":[-1.60386,53.85007]}},{"type":"Feature","properties":{"Name":"Reginald Terrace","Latitude":"53.81767","Longitude":"-1.5317","Address1":"263 Chapeltown Rd","Town":"Leeds","Region":"West Yorkshire","PostalCode":"LS7 3EX","CountryCode":"GB"},"geometry":{"type":"Point","coordinates":[-1.5317,53.81767]}},{"type":"Feature","properties":{"Name":"Royds Court SH","Latitude":"53.74796","Longitude":"-1.47646","Address1":"Royds Court","Address2":"Rothwell","Town":"Leeds","Region":"West Yorkshire","PostalCode":"LS26 0TQ","CountryCode":"GB"},"geometry":{"type":"Point","coordinates":[-1.47646,53.74796]}},{"type":"Feature","properties":{"Name":"Rycroft Green","Latitude":"53.80449","Longitude":"-1.6429","Address1":"Rycroft Green","Town":"Leeds","Region":"West Yorkshire","PostalCode":"LS13 4PD","CountryCode":"GB"},"geometry":{"type":"Point","coordinates":[-1.6429,53.80449]}},{"type":"Feature","properties":{"Name":"Richmond Hill Children's Centre","Latitude":"53.79393251","Longitude":"-1.522975509","Address1":"Walter Cresent","Town":"Leeds","Region":"West Yorkshire","PostalCode":"LS9 8NG","CountryCode":"GB","Stage":"Active","Type":"SingleSpot","Accessibility":"No Restrictions","Protection":"WPA2","GovroamEnabled":"1"},"geometry":{"type":"Point","coordinates":[-1.522976,53.793933]}},{"type":"Feature","properties":{"Name":"The Rose Lund Centre","Latitude":"53.75713451","Longitude":"-1.466701222","Address1":"Sixth Avenue","Address2":"Rothwell","Town":"Leeds","Region":"West Yorkshire","PostalCode":"LS26 0HD","CountryCode":"GB","Stage":"Active","Type":"SingleSpot","Accessibility":"No Restrictions","Protection":"WPA2","GovroamEnabled":"1"},"geometry":{"type":"Point","coordinates":[-1.466701,53.757135]}},{"type":"Feature","properties":{"Name":"Rothwell Children's Centre","Latitude":"53.75376496","Longitude":"-1.485078734","Address1":"Cornwall Crescent","Address2":"Rothwell","Town":"Leeds","Region":"West Yorkshire","PostalCode":"LS26 0RA","CountryCode":"GB","Stage":"Active","Type":"SingleSpot","Accessibility":"No Restrictions","Protection":"WPA2","GovroamEnabled":"1"},"geometry":{"type":"Point","coordinates":[-1.485079,53.753765]}},{"type":"Feature","properties":{"Name":"Rothwell Leisure Centre","Latitude":"53.74449011","Longitude":"-1.451913357","Address1":"Wakefield Road","Address2":"Oulton","Town":"Leeds","Region":"West Yorkshire","PostalCode":"LS26 8EL","CountryCode":"GB","Stage":"Active","Type":"SingleSpot","Accessibility":"No Restrictions","Protection":"WPA2","GovroamEnabled":"1"},"geometry":{"type":"Point","coordinates":[-1.451913,53.74449]}},{"type":"Feature","properties":{"Name":"Rothwell Community Hub","Latitude":"53.74715084","Longitude":"-1.479090426","Address1":"Marsh street","Address2":"Rothwell","Town":"Leeds","Region":"West Yorkshire","PostalCode":"LS26 0AD","CountryCode":"GB","Stage":"Active","Type":"SingleSpot","Accessibility":"No Restrictions","Protection":"WPA2","GovroamEnabled":"1"},"geometry":{"type":"Point","coordinates":[-1.47909,53.747151]}},{"type":"Feature","properties":{"Name":"Scholes Library","Latitude":"53.82521075","Longitude":"-1.429484963","Address1":"3 Station Road","Address2":"Scholes","Town":"Leeds","Region":"West Yorkshire","PostalCode":"LS15 4BJ","CountryCode":"GB","Stage":"Active","Type":"SingleSpot","Accessibility":"No Restrictions","Protection":"WPA2","GovroamEnabled":"1"},"geometry":{"type":"Point","coordinates":[-1.429485,53.825211]}},{"type":"Feature","properties":{"Name":"Scott Hall Leisure Centre","Latitude":"53.82597709","Longitude":"-1.545846946","Address1":"Scott Hall Road","Address2":"Chapeltown","Town":"Leeds","Region":"West Yorkshire","PostalCode":"LS7 3DT","CountryCode":"GB","Stage":"Active","Type":"SingleSpot","Accessibility":"No Restrictions","Protection":"WPA2","GovroamEnabled":"1"},"geometry":{"type":"Point","coordinates":[-1.545847,53.825977]}},{"type":"Feature","properties":{"Name":"South Seacroft One Stop Centre","Latitude":"53.81060046","Longitude":"-1.471477032","Address1":"91-95 Moresdale Lane","Address2":"Seacroft","Town":"Leeds","Region":"West Yorkshire","PostalCode":"LS14 6GG","CountryCode":"GB","Stage":"Active","Type":"SingleSpot","Accessibility":"No Restrictions","Protection":"WPA2","GovroamEnabled":"1"},"geometry":{"type":"Point","coordinates":[-1.471477,53.8106]}},{"type":"Feature","properties":{"Name":"Seacroft Children's Centre","Latitude":"53.81506915","Longitude":"-1.47135949","Address1":"144 South Parkway","Address2":"Seacroft","Town":"Leeds","Region":"West Yorkshire","PostalCode":"LS14 6EP","CountryCode":"GB","Stage":"Active","Type":"SingleSpot","Accessibility":"No Restrictions","Protection":"WPA2","GovroamEnabled":"1"},"geometry":{"type":"Point","coordinates":[-1.471359,53.815069]}},{"type":"Feature","properties":{"Name":"Shire View","Latitude":"53.8190253","Longitude":"-1.572975778","Address1":"72 Headingley Lane","Address2":"Headingley","Town":"Leeds","Region":"West Yorkshire","PostalCode":"LS6 2DJ","CountryCode":"GB","Stage":"Active","Type":"SingleSpot","Accessibility":"No Restrictions","Protection":"WPA2","GovroamEnabled":"1"},"geometry":{"type":"Point","coordinates":[-1.572976,53.819025]}},{"type":"Feature","properties":{"Name":"South Pudsey Community Centre","Latitude":"53.78962725","Longitude":"-1.652824998","Address1":"Kent Road","Address2":"Pudsey","Town":"Leeds","Region":"West Yorkshire","PostalCode":"LS28 9BN","CountryCode":"GB","Stage":"Active","Type":"SingleSpot","Accessibility":"No Restrictions","Protection":"WPA2","GovroamEnabled":"1"},"geometry":{"type":"Point","coordinates":[-1.652825,53.789627]}},{"type":"Feature","properties":{"Name":"Spen Croft","Latitude":"53.83140673","Longitude":"-1.603846939","Address1":"Spen Lane","Town":"Leeds","Region":"West Yorkshire","PostalCode":"LS16 5EJ","CountryCode":"GB","Stage":"Active","Type":"SingleSpot","Accessibility":"No Restrictions","Protection":"WPA2","GovroamEnabled":"1"},"geometry":{"type":"Point","coordinates":[-1.603847,53.831407]}},{"type":"Feature","properties":{"Name":"St Catherines Drive Childrens Home","Latitude":"53.8193","Longitude":"-1.62402","Address1":"St Catherine's Drive","Town":"Leeds","Region":"West Yorkshire","PostalCode":"LS13 2JY","CountryCode":"GB"},"geometry":{"type":"Point","coordinates":[-1.62402,53.8193]}},{"type":"Feature","properties":{"Name":"St James Hospital","Latitude":"53.80287564","Longitude":"-1.524367231","Address1":"Beckett Street","Town":"Leeds","Region":"West Yorkshire","PostalCode":"LS9 7LS","CountryCode":"GB","Stage":"Active","Type":"SingleSpot","Accessibility":"No Restrictions","Protection":"WPA2","GovroamEnabled":"1"},"geometry":{"type":"Point","coordinates":[-1.524367,53.802876]}},{"type":"Feature","properties":{"Name":"Stocks Hill Hub","Latitude":"53.797","Longitude":"-1.5868","Address1":"Chapel Lane","Town":"Leeds","Region":"West Yorkshire","PostalCode":"LS12 2DJ","CountryCode":"GB","Stage":"Active","Type":"SingleSpot","Accessibility":"No Restrictions","Protection":"WPA2","GovroamEnabled":"1"},"geometry":{"type":"Point","coordinates":[-1.5868,53.797]}},{"type":"Feature","properties":{"Name":"Suffolk Court","Latitude":"53.86657676","Longitude":"-1.684693575","Address1":"Yeadon","Town":"Leeds","Region":"West Yorkshire","PostalCode":"LS19 7JN","CountryCode":"GB","Stage":"Active","Type":"SingleSpot","Accessibility":"No Restrictions","Protection":"WPA2","GovroamEnabled":"1"},"geometry":{"type":"Point","coordinates":[-1.684694,53.866577]}},{"type":"Feature","properties":{"Name":"Swarcliffe Community Centre","Latitude":"53.81981575","Longitude":"-1.443455049","Address1":"65 Stanks Gardens","Address2":"Swarcliffe","Town":"Leeds","Region":"West Yorkshire","PostalCode":"LS14 5LS","CountryCode":"GB","Stage":"Active","Type":"SingleSpot","Accessibility":"No Restrictions","Protection":"WPA2","GovroamEnabled":"1"},"geometry":{"type":"Point","coordinates":[-1.443455,53.819816]}},{"type":"Feature","properties":{"Name":"Housing Leeds Swarcliffe","Latitude":"53.82291049","Longitude":"-1.442839026","Address1":"32-38 Langbar Gardens","Address2":"Swarcliffe","Town":"Leeds","Region":"West Yorkshire","PostalCode":"LS14 5ES","CountryCode":"GB","Stage":"Active","Type":"SingleSpot","Accessibility":"No Restrictions","Protection":"WPA2","GovroamEnabled":"1"},"geometry":{"type":"Point","coordinates":[-1.442839,53.82291]}},{"type":"Feature","properties":{"Name":"Temple Newsham Golf club","Latitude":"53.79103106","Longitude":"-1.472663999","Address1":"Templenewsham Road","Address2":"Halton","Town":"Leeds","Region":"West Yorkshire","PostalCode":"LS15 0LN","CountryCode":"GB","Stage":"Active","Type":"SingleSpot","Accessibility":"No Restrictions","Protection":"WPA2","GovroamEnabled":"1"},"geometry":{"type":"Point","coordinates":[-1.472664,53.791031]}},{"type":"Feature","properties":{"Name":"The Willows","Latitude":"53.83525","Longitude":"-1.64519","Address1":"Fink Hill","Address2":"Horsforth","Town":"Leeds","Region":"West Yorkshire","PostalCode":"LS18 5DY","CountryCode":"GB"},"geometry":{"type":"Point","coordinates":[-1.64519,53.83525]}},{"type":"Feature","properties":{"Name":"Two Willows ","Latitude":"53.76656","Longitude":"-1.571","Address1":"Nursery Cardinal Square","Town":"Leeds","Region":"West Yorkshire","PostalCode":"LS11 8HS","CountryCode":"GB"},"geometry":{"type":"Point","coordinates":[-1.571,53.76656]}},{"type":"Feature","properties":{"Name":"Thwaite Mills","Latitude":"53.77623385","Longitude":"-1.504032016","Address1":"Thwaite Lane","Town":"Leeds","Region":"West Yorkshire","PostalCode":"LS10 1RP","CountryCode":"GB","Stage":"Active","Type":"SingleSpot","Accessibility":"No Restrictions","Protection":"WPA2","GovroamEnabled":"1"},"geometry":{"type":"Point","coordinates":[-1.504032,53.776234]}},{"type":"Feature","properties":{"Name":"Tropical World Roundhay Park","Latitude":"53.84051168","Longitude":"-1.505093336","Address1":"Princes Avenue","Address2":"Roundhay Park","Town":"Leeds","Region":"West Yorkshire","PostalCode":"LS8 2ER","CountryCode":"GB","Stage":"Active","Type":"SingleSpot","Accessibility":"No Restrictions","Protection":"WPA2","GovroamEnabled":"1"},"geometry":{"type":"Point","coordinates":[-1.505093,53.840512]}},{"type":"Feature","properties":{"Name":"West Yorkshire Joint Services","Latitude":"53.74779566","Longitude":"-1.625783801","Address1":"Nepshaw Lane South","Address2":"Morley","Town":"Leeds","Region":"West Yorkshire","PostalCode":"LS27 7JQ","CountryCode":"GB","Stage":"Active","Type":"SingleSpot","Accessibility":"No Restrictions","Protection":"WPA2","GovroamEnabled":"1"},"geometry":{"type":"Point","coordinates":[-1.625784,53.747796]}},{"type":"Feature","properties":{"Name":"West Yorkshire History Centre","Latitude":"53.67973711","Longitude":"-1.491534595","Address1":"127 Kirkgate","Town":"Wakefield","Region":"West Yorkshire","PostalCode":"WF1 1JG","CountryCode":"GB","Stage":"Active","Type":"SingleSpot","Accessibility":"No Restrictions","Protection":"WPA2","GovroamEnabled":"1"},"geometry":{"type":"Point","coordinates":[-1.491535,53.679737]}},{"type":"Feature","properties":{"Name":"Westgate 4th, 5th and 6th Floors","Latitude":"53.79958123","Longitude":"-1.551024079","Address1":"Westgate","Town":"Leeds","Region":"West Yorkshire","PostalCode":"LS1 2NL","CountryCode":"GB","Stage":"Active","Type":"SingleSpot","Accessibility":"No Restrictions","Protection":"WPA2","GovroamEnabled":"1"},"geometry":{"type":"Point","coordinates":[-1.551024,53.799581]}},{"type":"Feature","properties":{"Name":"Wetherby One Stop Centre","Latitude":"53.92993563","Longitude":"-1.388537049","Address1":"24 W Gate","Address2":"Wetherby","Town":"Leeds","Region":"West Yorkshire","PostalCode":"LS22 6NL","CountryCode":"GB","Stage":"Active","Type":"SingleSpot","Accessibility":"No Restrictions","Protection":"WPA2","GovroamEnabled":"1"},"geometry":{"type":"Point","coordinates":[-1.388537,53.929936]}},{"type":"Feature","properties":{"Name":"Wetherby Childrens Centre","Latitude":"53.92882586","Longitude":"-1.380358019","Address1":"Hallfield Lane","Address2":"Wetherby","Town":"Leeds","Region":"West Yorkshire","PostalCode":"LS22 6JS","CountryCode":"GB","Stage":"Active","Type":"SingleSpot","Accessibility":"No Restrictions","Protection":"WPA2","GovroamEnabled":"1"},"geometry":{"type":"Point","coordinates":[-1.380358,53.928826]}},{"type":"Feature","properties":{"Name":"Wetherby Health Centre","Latitude":"53.92835653","Longitude":"-1.381341285","Address1":"42 Hallfield Lane","Address2":"Wetherby","Town":"Leeds","Region":"West Yorkshire","PostalCode":"LS22 6JT","CountryCode":"GB","Stage":"Active","Type":"SingleSpot","Accessibility":"No Restrictions","Protection":"WPA2","GovroamEnabled":"1"},"geometry":{"type":"Point","coordinates":[-1.381341,53.928357]}},{"type":"Feature","properties":{"Name":"Wetherby Leisure Centre","Latitude":"53.92600385","Longitude":"-1.389490604","Address1":"Lodge Lane","Address2":"Wetherby","Town":"Leeds","Region":"West Yorkshire","PostalCode":"LS22 5FN","CountryCode":"GB","Stage":"Active","Type":"SingleSpot","Accessibility":"No Restrictions","Protection":"WPA2","GovroamEnabled":"1"},"geometry":{"type":"Point","coordinates":[-1.389491,53.926004]}},{"type":"Feature","properties":{"Name":"Wetherby Library and Tourist Information Centre","Latitude":"53.92867648","Longitude":"-1.387554691","Address1":"17 W Gate","Address2":"Wetherby","Town":"Leeds","Region":"West Yorkshire","PostalCode":"LS22 6LL","CountryCode":"GB","Stage":"Active","Type":"SingleSpot","Accessibility":"No Restrictions","Protection":"WPA2","GovroamEnabled":"1"},"geometry":{"type":"Point","coordinates":[-1.387555,53.928676]}},{"type":"Feature","properties":{"Name":"Whinmoor Library","Latitude":"53.83711794","Longitude":"-1.455219436","Address1":"Naburn Approach","Address2":"Whinmoor","Town":"Leeds","Region":"West Yorkshire","PostalCode":"LS14 2DF","CountryCode":"GB","Stage":"Active","Type":"SingleSpot","Accessibility":"No Restrictions","Protection":"WPA2","GovroamEnabled":"1"},"geometry":{"type":"Point","coordinates":[-1.455219,53.837118]}},{"type":"Feature","properties":{"Name":"Woodview DC","Latitude":"53.81874","Longitude":"-1.44641","Address1":"Eastwood Drive","Address2":"Swarcliffe","Town":"Leeds","Region":"West Yorkshire","PostalCode":"LS14 5HU","CountryCode":"GB"},"geometry":{"type":"Point","coordinates":[-1.44641,53.81874]}},{"type":"Feature","properties":{"Name":"Yeadon Extra Care","Latitude":"53.86663","Longitude":"-1.68619","Address1":"Haworth Court, Chapel Lane,","Address2":"Yeadon","Town":"Leeds","Region":"West Yorkshire","PostalCode":"LS19 7NX","CountryCode":"GB"},"geometry":{"type":"Point","coordinates":[-1.68619,53.86663]}},{"type":"Feature","properties":{"Name":"Hyde Park Surgery","Latitude":"53.80678027","Longitude":"-1.567647114","Address1":"Woodsley Road","Town":"Leeds","Region":"West Yorkshire","PostalCode":"LS6 1SG","CountryCode":"GB","Stage":"Active","Type":"SingleSpot","Accessibility":"No Restrictions","Protection":"WPA2","GovroamEnabled":"1"},"geometry":{"type":"Point","coordinates":[-1.567647,53.80678]}},{"type":"Feature","properties":{"Name":"Housing Leeds Wortley","Latitude":"53.79608453","Longitude":"-1.616153922","Address1":"36 Heights Drive","Address2":"Wortley","Town":"Leeds","Region":"West Yorkshire","PostalCode":"LS12 3SU","CountryCode":"GB","Stage":"Active","Type":"SingleSpot","Accessibility":"No Restrictions","Protection":"WPA2","GovroamEnabled":"1"},"geometry":{"type":"Point","coordinates":[-1.616154,53.796085]}},{"type":"Feature","properties":{"Name":"Wykebeck Valley Road Day Centre","Latitude":"53.80671741","Longitude":"-1.487641399","Address1":"Wykebeck Valley Road","Town":"Leeds","Region":"West Yorkshire","PostalCode":"LS9 6NR","CountryCode":"GB","Stage":"Active","Type":"SingleSpot","Accessibility":"No Restrictions","Protection":"WPA2","GovroamEnabled":"1"},"geometry":{"type":"Point","coordinates":[-1.487641,53.806717]}},{"type":"Feature","properties":{"Name":"Yeadon Library and One Stop Centre","Latitude":"53.86607667","Longitude":"-1.684114752","Address1":"Town Hall Square","Address2":"Yeadon","Town":"Leeds","Region":"West Yorkshire","PostalCode":"LS19 7PP","CountryCode":"GB","Stage":"Active","Type":"SingleSpot","Accessibility":"No Restrictions","Protection":"WPA2","GovroamEnabled":"1"},"geometry":{"type":"Point","coordinates":[-1.684115,53.866077]}},{"type":"Feature","properties":{"Name":"Yeadon Community Health Centre","Latitude":"53.86522254","Longitude":"-1.684020117","Address1":"17 S View Road","Address2":"Yeadon","Town":"Leeds","Region":"West Yorkshire","PostalCode":"LS19 7PS","CountryCode":"GB","Stage":"Active","Type":"SingleSpot","Accessibility":"No Restrictions","Protection":"WPA2","GovroamEnabled":"1"},"geometry":{"type":"Point","coordinates":[-1.68402,53.865223]}},{"type":"Feature","properties":{"Name":"Yeadon Tarn","Latitude":"53.86969643","Longitude":"-1.673554459","Address1":"Off Cemetary Road","Address2":"Yeadon","Town":"Leeds","Region":"West Yorkshire","PostalCode":"LS19 7TF","CountryCode":"GB","Stage":"Active","Type":"SingleSpot","Accessibility":"No Restrictions","Protection":"WPA2","GovroamEnabled":"1"},"geometry":{"type":"Point","coordinates":[-1.673554,53.869696]}},{"type":"Feature","properties":{"Name":"Leeds YOS","Latitude":"53.77843262","Longitude":"-1.533616909","Address1":"Youth Justice Centre","Address2":"Church street","Town":"Leeds","Region":"West Yorkshire","PostalCode":"LS10 2AY","CountryCode":"GB","Stage":"Active","Type":"SingleSpot","Accessibility":"No Restrictions","Protection":"WPA2","GovroamEnabled":"1"},"geometry":{"type":"Point","coordinates":[-1.533617,53.778433]}},{"type":"Feature","properties":{"Name":"Spring Gardens Home for Older People","Latitude":"53.90079921","Longitude":"-1.709257321","Address1":"Westbourne Grove","Address2":"Otley","Town":"Leeds","Region":"West Yorkshire","PostalCode":"LS21 3LJ","CountryCode":"GB","Stage":"Active","Type":"SingleSpot","Accessibility":"No Restrictions","Protection":"WPA2","GovroamEnabled":"1"},"geometry":{"type":"Point","coordinates":[-1.709257,53.900799]}},{"type":"Feature","properties":{"Name":"Temple Newsham House","Latitude":"53.78434008","Longitude":"-1.459725976","Address1":"Temple Newsham road","Town":"Leeds","Region":"West Yorkshire","PostalCode":"LS15 0AE","CountryCode":"GB","Stage":"Active","Type":"SingleSpot","Accessibility":"No Restrictions","Protection":"WPA2","GovroamEnabled":"1"},"geometry":{"type":"Point","coordinates":[-1.459726,53.78434]}},{"type":"Feature","properties":{"Name":"The Green Home for Older People","Latitude":"53.81961898","Longitude":"-1.460222335","Address1":"The Green","Address2":"Seacroft","Town":"Leeds","Region":"West Yorkshire","PostalCode":"LS14 6JW","CountryCode":"GB","Stage":"Active","Type":"SingleSpot","Accessibility":"No Restrictions","Protection":"WPA2","GovroamEnabled":"1"},"geometry":{"type":"Point","coordinates":[-1.460222,53.819619]}},{"type":"Feature","properties":{"Name":"Leeds City Council Fleet Services","Latitude":"53.79947442","Longitude":"-1.510948539","Address1":"77 Torre Road","Town":"Leeds","Region":"West Yorkshire","PostalCode":"LS9 7QL","CountryCode":"GB","Stage":"Active","Type":"SingleSpot","Accessibility":"No Restrictions","Protection":"WPA2","GovroamEnabled":"1"},"geometry":{"type":"Point","coordinates":[-1.510949,53.799474]}},{"type":"Feature","properties":{"Name":"Tribeca House","Latitude":"53.81019101","Longitude":"-1.528548479","Address1":"Roundhay Road","Town":"Leeds","Region":"West Yorkshire","PostalCode":"LS7 3BE","CountryCode":"GB","Stage":"Active","Type":"SingleSpot","Accessibility":"No Restrictions","Protection":"WPA2","GovroamEnabled":"1"},"geometry":{"type":"Point","coordinates":[-1.528548,53.810191]}},{"type":"Feature","properties":{"Name":"Vale Circles","Latitude":"53.7759859","Longitude":"-1.543244958","Address1":"Tunstall Road","Town":"Leeds","Region":"West Yorkshire","PostalCode":"LS11 5JF","CountryCode":"GB","Stage":"Active","Type":"SingleSpot","Accessibility":"No Restrictions","Protection":"WPA2","GovroamEnabled":"1"},"geometry":{"type":"Point","coordinates":[-1.543245,53.775986]}},{"type":"Feature","properties":{"Name":"Westfield Chambers","Latitude":"53.78388613","Longitude":"-1.598433018","Address1":"Lower Wortley Road","Town":"Leeds","Region":"West Yorkshire","PostalCode":"LS12 4PX","CountryCode":"GB","Stage":"Active","Type":"SingleSpot","Accessibility":"No Restrictions","Protection":"WPA2","GovroamEnabled":"1"},"geometry":{"type":"Point","coordinates":[-1.598433,53.783886]}},{"type":"Feature","properties":{"Name":"Woodsley Green Skills Centre","Latitude":"53.80744189","Longitude":"-1.56672895","Address1":"Woodsley Green","Town":"Leeds","Region":"West Yorkshire","PostalCode":"LS6 1SD","CountryCode":"GB","Stage":"Active","Type":"SingleSpot","Accessibility":"No Restrictions","Protection":"WPA2","GovroamEnabled":"1"},"geometry":{"type":"Point","coordinates":[-1.566729,53.807442]}},{"type":"Feature","properties":{"Name":"Suffolk Court Yeadon Extra Care","Latitude":"53.86658244","Longitude":"-1.683818689","Address1":"Silver Lane surgery","Address2":"1 suffolk Court","Town":"Leeds","Region":"West Yorkshire","PostalCode":"LS19 7JN","CountryCode":"GB","Stage":"Active","Type":"SingleSpot","Accessibility":"No Restrictions","Protection":"WPA2","GovroamEnabled":"1"},"geometry":{"type":"Point","coordinates":[-1.683819,53.866582]}},{"type":"Feature","properties":{"Name":"Beeston Road Adult Social Care","Latitude":"53.78098315","Longitude":"-1.553115964","Address1":"Beeston Road","Town":"Leeds","Region":"West Yorkshire","PostalCode":"LS11 8ND","CountryCode":"GB","Stage":"Active","Type":"SingleSpot","Accessibility":"No Restrictions","Protection":"WPA2","GovroamEnabled":"1"},"geometry":{"type":"Point","coordinates":[-1.553116,53.780983]}},{"type":"Feature","properties":{"Name":"Holbeck and City Childrens Centre","Latitude":"53.78137606","Longitude":"-1.547222972","Address1":"Disraeli Terrace","Town":"Leeds","Region":"West Yorkshire","PostalCode":"LS11 6TT","CountryCode":"GB","Stage":"Active","Type":"SingleSpot","Accessibility":"No Restrictions","Protection":"WPA2","GovroamEnabled":"1"},"geometry":{"type":"Point","coordinates":[-1.547223,53.781376]}},{"type":"Feature","properties":{"Name":"Hunslet Hall","Latitude":"53.78184527","Longitude":"-1.547688961","Address1":"Hunslet Hall Road","Town":"Leeds","Region":"West Yorkshire","PostalCode":"LS11 6UA","CountryCode":"GB","Stage":"Active","Type":"SingleSpot","Accessibility":"No Restrictions","Protection":"WPA2","GovroamEnabled":"1"},"geometry":{"type":"Point","coordinates":[-1.547689,53.781845]}},{"type":"Feature","properties":{"Name":"Hunslet Childrens Centre","Latitude":"53.77736941","Longitude":"-1.529058439","Address1":"St Marys C Of E Primary School","Address2":"Church street","Town":"Leeds","Region":"West Yorkshire","PostalCode":"LS10 2QY","CountryCode":"GB","Stage":"Active","Type":"SingleSpot","Accessibility":"No Restrictions","Protection":"WPA2","GovroamEnabled":"1"},"geometry":{"type":"Point","coordinates":[-1.529058,53.777369]}},{"type":"Feature","properties":{"Name":"Calverlands Day Centre","Latitude":"53.84069579","Longitude":"-1.640251746","Address1":"Church Lane","Address2":"Horsforth","Town":"Leeds","Region":"West Yorkshire","PostalCode":"LS18 5LA","CountryCode":"GB","Stage":"Active","Type":"SingleSpot","Accessibility":"No Restrictions","Protection":"WPA2","GovroamEnabled":"1"},"geometry":{"type":"Point","coordinates":[-1.640252,53.840696]}},{"type":"Feature","properties":{"Name":"Assisted Living Leeds","Latitude":"53.78950753","Longitude":"-1.530461108","Address1":"Clarence Road","Town":"Leeds","Region":"West Yorkshire","PostalCode":"LS10 1LZ","CountryCode":"GB","Stage":"Active","Type":"SingleSpot","Accessibility":"No Restrictions","Protection":"WPA2","GovroamEnabled":"1"},"geometry":{"type":"Point","coordinates":[-1.530461,53.789508]}},{"type":"Feature","properties":{"Name":"Knowsthorpe Gate","Latitude":"53.78482256","Longitude":"-1.501115352","Address1":"Knowsthorpe Gate","Town":"Leeds","Region":"West Yorkshire","PostalCode":"LS9 0NP","CountryCode":"GB","Stage":"Active","Type":"SingleSpot","Accessibility":"No Restrictions","Protection":"WPA2","GovroamEnabled":"1"},"geometry":{"type":"Point","coordinates":[-1.501115,53.784823]}},{"type":"Feature","properties":{"Name":"Cross Heath Grove IL","Latitude":"53.7713","Longitude":"-1.5749","Address1":"Crow Nest Mews","Town":"Leeds","Region":"West Yorkshire","PostalCode":"LS11 8JQ","CountryCode":"GB","Stage":"Active","Type":"SingleSpot","Accessibility":"No Restrictions","Protection":"WPA2","GovroamEnabled":"1"},"geometry":{"type":"Point","coordinates":[-1.5749,53.7713]}},{"type":"Feature","properties":{"Name":"Easdale Childrens Home","Latitude":"53.81927877","Longitude":"-1.470190788","Address1":"Easdale close","Town":"Leeds","Region":"West Yorkshire","PostalCode":"LS14 6QF","CountryCode":"GB","Stage":"Active","Type":"SingleSpot","Accessibility":"No Restrictions","Protection":"WPA2","GovroamEnabled":"1"},"geometry":{"type":"Point","coordinates":[-1.470191,53.819279]}},{"type":"Feature","properties":{"Name":"Inner East Cluster Family Resource Centre","Latitude":"53.80165545","Longitude":"-1.52768626","Address1":"Licoln Fields Centre","Address2":"Cromwell street","Town":"Leeds","Region":"West Yorkshire","PostalCode":"LS9 7SG","CountryCode":"GB","Stage":"Active","Type":"SingleSpot","Accessibility":"No Restrictions","Protection":"WPA2","GovroamEnabled":"1"},"geometry":{"type":"Point","coordinates":[-1.527686,53.801655]}},{"type":"Feature","properties":{"Name":"Enterprise House","Latitude":"53.7981437","Longitude":"-1.550734605","Address1":"12 St Paul's street","Town":"Leeds","Region":"West Yorkshire","PostalCode":"LS1 2LE","CountryCode":"GB","Stage":"Active","Type":"SingleSpot","Accessibility":"No Restrictions","Protection":"WPA2","GovroamEnabled":"1"},"geometry":{"type":"Point","coordinates":[-1.550735,53.798144]}},{"type":"Feature","properties":{"Name":"Farfield Drive Independent Living Centre","Latitude":"53.8106","Longitude":"-1.6788","Address1":"Farfield Drive","Address2":"Pudsey","Town":"Leeds","Region":"West Yorkshire","PostalCode":"LS28 5HN","CountryCode":"GB","Stage":"Active","Type":"SingleSpot","Accessibility":"No Restrictions","Protection":"WPA2","GovroamEnabled":"1"},"geometry":{"type":"Point","coordinates":[-1.6788,53.8106]}},{"type":"Feature","properties":{"Name":"West Leeds Contact Centre","Latitude":"53.82272405","Longitude":"-1.593677382","Address1":"Foxcroft Mount","Town":"Leeds","Region":"West Yorkshire","PostalCode":"LS6 3NT","CountryCode":"GB","Stage":"Active","Type":"SingleSpot","Accessibility":"No Restrictions","Protection":"WPA2","GovroamEnabled":"1"},"geometry":{"type":"Point","coordinates":[-1.593677,53.822724]}},{"type":"Feature","properties":{"Name":"Frederick Hurdle Day Centre","Latitude":"53.816994","Longitude":"-1.532117","Address1":"Chapeltown Road","Town":"Leeds","Region":"West Yorkshire","PostalCode":"LS7 3EX","CountryCode":"GB","Stage":"Active","Type":"SingleSpot","Accessibility":"No Restrictions","Protection":"WPA2","GovroamEnabled":"1"},"geometry":{"type":"Point","coordinates":[-1.532117,53.816994]}},{"type":"Feature","properties":{"Name":"West Leeds Family Resource Centre","Latitude":"53.81806023","Longitude":"-1.630574118","Address1":"Ganners Green","Town":"Leeds","Region":"West Yorkshire","PostalCode":"LS13 2PD","CountryCode":"GB","Stage":"Active","Type":"SingleSpot","Accessibility":"No Restrictions","Protection":"WPA2","GovroamEnabled":"1"},"geometry":{"type":"Point","coordinates":[-1.630574,53.81806]}},{"type":"Feature","properties":{"Name":"Mears Office-Great Eastern House","Latitude":"53.7717","Longitude":"-1.5171","Address1":"Off Wakefield Road","Town":"Leeds","Region":"West Yorkshire","PostalCode":"LS10 3DQ","CountryCode":"GB","Stage":"Active","Type":"SingleSpot","Accessibility":"No Restrictions","Protection":"WPA2","GovroamEnabled":"1"},"geometry":{"type":"Point","coordinates":[-1.5171,53.7717]}},{"type":"Feature","properties":{"Name":"Hawksworth Wood community Association","Latitude":"53.8287","Longitude":"-1.616","Address1":"Broadway","Town":"Leeds","Region":"West Yorkshire","PostalCode":"LS5 3PR","CountryCode":"GB","Stage":"Active","Type":"SingleSpot","Accessibility":"No Restrictions","Protection":"WPA2","GovroamEnabled":"1"},"geometry":{"type":"Point","coordinates":[-1.616,53.8287]}},{"type":"Feature","properties":{"Name":"Henshaw Lane Bin Depot","Latitude":"53.85859136","Longitude":"-1.686739769","Address1":"Green Lane","Address2":"Yeadon","Town":"Leeds","Region":"West Yorkshire","PostalCode":"LS19 7BY","CountryCode":"GB","Stage":"Active","Type":"SingleSpot","Accessibility":"No Restrictions","Protection":"WPA2","GovroamEnabled":"1"},"geometry":{"type":"Point","coordinates":[-1.68674,53.858591]}},{"type":"Feature","properties":{"Name":"Killingbeck Court","Latitude":"53.81270236","Longitude":"-1.46924901","Address1":"Brathay Gardens","Town":"Leeds","Region":"West Yorkshire","PostalCode":"LS14 6DF","CountryCode":"GB","Stage":"Active","Type":"SingleSpot","Accessibility":"No Restrictions","Protection":"WPA2","GovroamEnabled":"1"},"geometry":{"type":"Point","coordinates":[-1.469249,53.812702]}},{"type":"Feature","properties":{"Name":"Lanshaw Childrens Home","Latitude":"53.7512247","Longitude":"-1.529682994","Address1":"Lanshaw Crescent","Town":"Leeds","Region":"West Yorkshire","PostalCode":"LS10 3NN","CountryCode":"GB","Stage":"Active","Type":"SingleSpot","Accessibility":"No Restrictions","Protection":"WPA2","GovroamEnabled":"1"},"geometry":{"type":"Point","coordinates":[-1.529683,53.751225]}},{"type":"Feature","properties":{"Name":"Lazer Childrens Centre","Latitude":"53.81066912","Longitude":"-1.606621027","Address1":"Lenhurst Avenue","Town":"Leeds","Region":"West Yorkshire","PostalCode":"LS12 2RE","CountryCode":"GB","Stage":"Active","Type":"SingleSpot","Accessibility":"No Restrictions","Protection":"WPA2","GovroamEnabled":"1"},"geometry":{"type":"Point","coordinates":[-1.606621,53.810669]}},{"type":"Feature","properties":{"Name":"Lingfield Childrens Home","Latitude":"53.84892408","Longitude":"-1.547254762","Address1":"Lingfield Approach","Town":"Leeds","Region":"West Yorkshire","PostalCode":"LS17 7HL","CountryCode":"GB","Stage":"Active","Type":"SingleSpot","Accessibility":"No Restrictions","Protection":"WPA2","GovroamEnabled":"1"},"geometry":{"type":"Point","coordinates":[-1.547255,53.848924]}},{"type":"Feature","properties":{"Name":"Little London Childrens Centre","Latitude":"53.80882523","Longitude":"-1.540025711","Address1":"Meanwood Road","Town":"Leeds","Region":"West Yorkshire","PostalCode":"LS7 1SR","CountryCode":"GB","Stage":"Active","Type":"SingleSpot","Accessibility":"No Restrictions","Protection":"WPA2","GovroamEnabled":"1"},"geometry":{"type":"Point","coordinates":[-1.540026,53.808825]}},{"type":"Feature","properties":{"Name":"Lovell Park Hub","Latitude":"53.80570239","Longitude":"-1.53671205","Address1":"Lovell Park View","Town":"Leeds","Region":"West Yorkshire","PostalCode":"LS7 1DA","CountryCode":"GB","Stage":"Active","Type":"SingleSpot","Accessibility":"No Restrictions","Protection":"WPA2","GovroamEnabled":"1"},"geometry":{"type":"Point","coordinates":[-1.536712,53.805702]}},{"type":"Feature","properties":{"Name":"Meanwood Children's Centre","Latitude":"53.82439059","Longitude":"-1.547124028","Address1":"Potternewton View","Town":"Leeds","Region":"West Yorkshire","PostalCode":"LS7 2DW","CountryCode":"GB","Stage":"Active","Type":"SingleSpot","Accessibility":"No Restrictions","Protection":"WPA2","GovroamEnabled":"1"},"geometry":{"type":"Point","coordinates":[-1.547124,53.824391]}},{"type":"Feature","properties":{"Name":"Middleton Under 3 Children Centre","Latitude":"53.7410816","Longitude":"-1.548136247","Address1":"100 Middleton Park Avenue","Town":"Leeds","Region":"West Yorkshire","PostalCode":"LS10 4HY","CountryCode":"GB","Stage":"Active","Type":"SingleSpot","Accessibility":"No Restrictions","Protection":"WPA2","GovroamEnabled":"1"},"geometry":{"type":"Point","coordinates":[-1.548136,53.741082]}},{"type":"Feature","properties":{"Name":"Laurel Bank Day Centre","Latitude":"53.74064694","Longitude":"-1.54783584","Address1":"100 Middleton Park Avenue","Town":"Leeds","Region":"West Yorkshire","CountryCode":"GB","Stage":"Active","Type":"SingleSpot","Accessibility":"No Restrictions","Protection":"WPA2","GovroamEnabled":"1"},"geometry":{"type":"Point","coordinates":[-1.547836,53.740647]}},{"type":"Feature","properties":{"Name":"Middleton Health Centre","Latitude":"53.7430231","Longitude":"-1.546650052","Address1":"Acre Close","Address2":"Middleton","Town":"Leeds","Region":"West Yorkshire","PostalCode":"LS10 4HX","CountryCode":"GB","Stage":"Active","Type":"SingleSpot","Accessibility":"No Restrictions","Protection":"WPA2","GovroamEnabled":"1"},"geometry":{"type":"Point","coordinates":[-1.54665,53.743023]}},{"type":"Feature","properties":{"Name":"Millshaw","Latitude":"53.76634616","Longitude":"-1.578377962","Address1":"Millshaw Park Way","Town":"Leeds","Region":"West Yorkshire","CountryCode":"GB","Stage":"Active","Type":"SingleSpot","Accessibility":"No Restrictions","Protection":"WPA2","GovroamEnabled":"1"},"geometry":{"type":"Point","coordinates":[-1.578378,53.766346]}},{"type":"Feature","properties":{"Name":"Museum Discovery Centre","Latitude":"53.78874202","Longitude":"-1.530914254","Address1":"Carlisle Road","Town":"Leeds","Region":"West Yorkshire","PostalCode":"LS10 1LB","CountryCode":"GB","Stage":"Active","Type":"SingleSpot","Accessibility":"No Restrictions","Protection":"WPA2","GovroamEnabled":"1"},"geometry":{"type":"Point","coordinates":[-1.530914,53.788742]}},{"type":"Feature","properties":{"Name":"New Bewerley Children's Centre","Latitude":"53.77996706","Longitude":"-1.546842166","Address1":"Bismarck Drive","Town":"Leeds","Region":"West Yorkshire","PostalCode":"LS11 6TB","CountryCode":"GB","Stage":"Active","Type":"SingleSpot","Accessibility":"No Restrictions","Protection":"WPA2","GovroamEnabled":"1"},"geometry":{"type":"Point","coordinates":[-1.546842,53.779967]}},{"type":"Feature","properties":{"Name":"Nowell Mount","Latitude":"53.80256751","Longitude":"-1.506956966","Address1":"Nowell Mount","Town":"Leeds","Region":"West Yorkshire","PostalCode":"LS9 6JJ","CountryCode":"GB","Stage":"Active","Type":"SingleSpot","Accessibility":"No Restrictions","Protection":"WPA2","GovroamEnabled":"1"},"geometry":{"type":"Point","coordinates":[-1.506957,53.802568]}},{"type":"Feature","properties":{"Name":"Osmondthorpe Resource Centre","Latitude":"53.7998107","Longitude":"-1.498482138","Address1":"80-84 Osmondthorpe Lane","Town":"Leeds","Region":"West Yorkshire","PostalCode":"LS9 9EF","CountryCode":"GB","Stage":"Active","Type":"SingleSpot","Accessibility":"No Restrictions","Protection":"WPA2","GovroamEnabled":"1"},"geometry":{"type":"Point","coordinates":[-1.498482,53.799811]}},{"type":"Feature","properties":{"Name":"Pinfolds Childrens Centre","Latitude":"53.7999","Longitude":"-1.4659","Address1":"Field Terrace","Town":"Leeds","Region":"West Yorkshire","PostalCode":"LS15 7RE","CountryCode":"GB","Stage":"Active","Type":"SingleSpot","Accessibility":"No Restrictions","Protection":"WPA2","GovroamEnabled":"1"},"geometry":{"type":"Point","coordinates":[-1.4659,53.7999]}},{"type":"Feature","properties":{"Name":"Potternewton Childrens Centre","Latitude":"53.82438021","Longitude":"-1.5471","Address1":"Potternewton View","Town":"Leeds","Region":"West Yorkshire","PostalCode":"LS7 2DW","CountryCode":"GB","Stage":"Active","Type":"SingleSpot","Accessibility":"No Restrictions","Protection":"WPA2","GovroamEnabled":"1"},"geometry":{"type":"Point","coordinates":[-1.5471,53.82438]}},{"type":"Feature","properties":{"Name":"Rainbow House Children's Centre","Latitude":"53.81255887","Longitude":"-1.617056038","Address1":"Victoria Park Avenue","Town":"Leeds","Region":"West Yorkshire","PostalCode":"LS13 2HP","CountryCode":"GB","Stage":"Active","Type":"SingleSpot","Accessibility":"No Restrictions","Protection":"WPA2","GovroamEnabled":"1"},"geometry":{"type":"Point","coordinates":[-1.617056,53.812559]}},{"type":"Feature","properties":{"Name":"Ireland Wood Childrens Centre","Latitude":"53.85198565","Longitude":"-1.604666472","Address1":"Raynel Gardens","Town":"Leeds","Region":"West Yorkshire","PostalCode":"LS16 6BR","CountryCode":"GB","Stage":"Active","Type":"SingleSpot","Accessibility":"No Restrictions","Protection":"WPA2","GovroamEnabled":"1"},"geometry":{"type":"Point","coordinates":[-1.604666,53.851986]}},{"type":"Feature","properties":{"Name":"The Reginald Centre","Latitude":"53.817709","Longitude":"-1.5317","Address1":"Reginald terrace","Address2":"Chapeltown","Town":"Leeds","Region":"West Yorkshire","PostalCode":"LS7 3EZ","CountryCode":"GB","Stage":"Active","Type":"SingleSpot","Accessibility":"No Restrictions","Protection":"WPA2","GovroamEnabled":"1"},"geometry":{"type":"Point","coordinates":[-1.5317,53.817709]}},{"type":"Feature","properties":{"Name":"Richmond Hill NHO","Latitude":"53.79442603","Longitude":"-1.523034518","Address1":"Walter Crescent","Town":"Leeds","Region":"West Yorkshire","PostalCode":"LS9 8NG","CountryCode":"GB","Stage":"Active","Type":"SingleSpot","Accessibility":"No Restrictions","Protection":"WPA2","GovroamEnabled":"1"},"geometry":{"type":"Point","coordinates":[-1.523035,53.794426]}},{"type":"Feature","properties":{"Name":"Richmond House Care Home","Latitude":"53.80867721","Longitude":"-1.678724898","Address1":"Richmond Road","Address2":"Pudsey","Town":"Leeds","Region":"West Yorkshire","PostalCode":"LS28 5ST","CountryCode":"GB","Stage":"Active","Type":"SingleSpot","Accessibility":"No Restrictions","Protection":"WPA2","GovroamEnabled":"1"},"geometry":{"type":"Point","coordinates":[-1.678725,53.808677]}},{"type":"Feature","properties":{"Name":"Rothwell Fulfilling Lives Home for Older People","Latitude":"53.75605669","Longitude":"-1.461077145","Address1":"Holmsley Lane","Address2":"Woodlesford","Town":"Leeds","Region":"West Yorkshire","PostalCode":"LS26 8SD","CountryCode":"GB","Stage":"Active","Type":"SingleSpot","Accessibility":"No Restrictions","Protection":"WPA2","GovroamEnabled":"1"},"geometry":{"type":"Point","coordinates":[-1.461077,53.756057]}},{"type":"Feature","properties":{"Name":"Rutland Lodge","Latitude":"53.82466071","Longitude":"-1.539861197","Address1":"Potternewton Lane","Town":"Leeds","Region":"West Yorkshire","PostalCode":"LS7 3DF","CountryCode":"GB","Stage":"Active","Type":"SingleSpot","Accessibility":"No Restrictions","Protection":"WPA2","GovroamEnabled":"1"},"geometry":{"type":"Point","coordinates":[-1.539861,53.824661]}},{"type":"Feature","properties":{"Name":"SEC Swillington","Latitude":"53.7628","Longitude":"-1.4149","Address1":"Astley Way","Address2":"Swillington","Town":"Leeds","Region":"West Yorkshire","PostalCode":"LS26 8XT","CountryCode":"GB","Stage":"Active","Type":"SingleSpot","Accessibility":"No Restrictions","Protection":"WPA2","GovroamEnabled":"1"},"geometry":{"type":"Point","coordinates":[-1.4149,53.7628]}},{"type":"Feature","properties":{"Name":"SKiLs- Lingfield Childrens Centre","Latitude":"53.8491534","Longitude":"-1.544402682","Address1":"Lingfield Drive","Town":"Leeds","Region":"West Yorkshire","PostalCode":"LS17 7HF","CountryCode":"GB","Stage":"Active","Type":"SingleSpot","Accessibility":"No Restrictions","Protection":"WPA2","GovroamEnabled":"1"},"geometry":{"type":"Point","coordinates":[-1.544403,53.849153]}},{"type":"Feature","properties":{"Name":"South Leeds Independent Centre","Latitude":"53.76847508","Longitude":"-1.556463502","Address1":"2 Atha Crescent","Town":"Leeds","Region":"west Yorkshire","PostalCode":"LS11 7DB","CountryCode":"GB","Stage":"Active","Type":"SingleSpot","Accessibility":"No Restrictions","Protection":"WPA2","GovroamEnabled":"1"},"geometry":{"type":"Point","coordinates":[-1.556464,53.768475]}},{"type":"Feature","properties":{"Name":"Scott Hall Emergency Respite Centre","Latitude":"53.82438021","Longitude":"-1.547066472","Address1":"Potternewton View","Town":"Leeds","Region":"West Yorkshire","PostalCode":"LS7 2DW","CountryCode":"GB","Stage":"Active","Type":"SingleSpot","Accessibility":"No Restrictions","Protection":"WPA2","GovroamEnabled":"1"},"geometry":{"type":"Point","coordinates":[-1.547066,53.82438]}},{"type":"Feature","properties":{"Name":"Shannon House","Latitude":"53.8310751","Longitude":"-1.60378408","Address1":"Spen Lane","Town":"Leeds","Region":"West Yorkshire","PostalCode":"LS16 5EJ","CountryCode":"GB","Stage":"Active","Type":"SingleSpot","Accessibility":"No Restrictions","Protection":"WPA2","GovroamEnabled":"1"},"geometry":{"type":"Point","coordinates":[-1.603784,53.831075]}},{"type":"Feature","properties":{"Name":"Shepherds Lane Early Years Centre","Latitude":"53.81468427","Longitude":"-1.51960221","Address1":"Shepherds Lane","Town":"Leeds","Region":"West yorkshire","PostalCode":"LS8 5AN","CountryCode":"GB","Stage":"Active","Type":"SingleSpot","Accessibility":"No Restrictions","Protection":"WPA2","GovroamEnabled":"1"},"geometry":{"type":"Point","coordinates":[-1.519602,53.814684]}},{"type":"Feature","properties":{"Name":"Leeds Town Hall","Latitude":"53.80014278","Longitude":"-1.549834137","Address1":"The Headrow","Town":"Leeds","Region":"West Yorkshire","PostalCode":"LS1 3AD","CountryCode":"GB","Stage":"Active","Type":"SingleSpot","Accessibility":"No Restrictions","Protection":"WPA2","GovroamEnabled":"1"},"geometry":{"type":"Point","coordinates":[-1.549834,53.800143]}},{"type":"Feature","properties":{"Name":"Merrion House","Latitude":"53.80266028","Longitude":"-1.545121551","Address1":"Merrion Way","Town":"Leeds","Region":"West Yorkshire","PostalCode":"LS2 8BB","CountryCode":"GB","Stage":"Active","Type":"SingleSpot","Accessibility":"No Restrictions","Protection":"WPA2","GovroamEnabled":"1"},"geometry":{"type":"Point","coordinates":[-1.545122,53.80266]}}]}